[
  {
    "name": "Eroski",
    "address": "Mallorca",
    "area": "Palma",
    "category": "supermarkets",
    "rating": 0,
    "verified": false,
    "location": {
      "lat": 39.528612,
      "lng": 2.733066
    }
  },
  {
    "name": "Mar Menor",
    "address": "Mallorca",
    "area": "Palma",
    "category": "supermarkets",
    "rating": 0,
    "verified": false,
    "location": {
      "lat": 39.519881,
      "lng": 2.742447
    }
  },
  {
    "name": "Supermarket",
    "address": "Mallorca",
    "area": "Palma",
    "category": "supermarkets",
    "rating": 0,
    "verified": false,
    "location": {
      "lat": 39.523129,
      "lng": 2.739108
    }
  },
  {
    "name": "Supermarket",
    "address": "Mallorca",
    "area": "Palma",
    "category": "supermarkets",
    "rating": 0,
    "verified": false,
    "location": {
      "lat": 39.523527,
      "lng": 2.737112
    }
  },
  {
    "name": "Deutscher Supermarkt",
    "address": "15, Carrer de Marbella",
    "area": "Palma",
    "category": "supermarkets",
    "rating": 0,
    "verified": false,
    "location": {
      "lat": 39.52777,
      "lng": 2.734008
    },
    "website": "http://www.gourmetmarkt.biz/"
  },
  {
    "name": "Spar",
    "address": "Mallorca",
    "area": "Andratx",
    "category": "supermarkets",
    "rating": 0,
    "verified": false,
    "location": {
      "lat": 39.537091,
      "lng": 2.45527
    }
  },
  {
    "name": "Spar",
    "address": "Mallorca",
    "area": "Calvià",
    "category": "supermarkets",
    "rating": 0,
    "verified": false,
    "location": {
      "lat": 39.536467,
      "lng": 2.457482
    }
  },
  {
    "name": "Onkar",
    "address": "Mallorca",
    "area": "Andratx",
    "category": "supermarkets",
    "rating": 0,
    "verified": false,
    "location": {
      "lat": 39.537482,
      "lng": 2.448519
    }
  },
  {
    "name": "Carrefour",
    "address": "168, Carrer del Cardenal Rossell, Coll d'en Rabassa",
    "area": "Llucmajor",
    "category": "supermarkets",
    "rating": 0,
    "verified": false,
    "location": {
      "lat": 39.552517,
      "lng": 2.706316
    },
    "phone": "+34 914 908900",
    "hours": {
      "open": "Mo-Sa 10:00-22:00",
      "close": ""
    }
  },
  {
    "name": "Spar",
    "address": "Mallorca",
    "area": "Llucmajor",
    "category": "supermarkets",
    "rating": 0,
    "verified": false,
    "location": {
      "lat": 39.43387,
      "lng": 2.754653
    }
  },
  {
    "name": "Coaliment",
    "address": "62, Carrer Isabel II, Sóller",
    "area": "Sóller",
    "category": "supermarkets",
    "rating": 0,
    "verified": false,
    "location": {
      "lat": 39.763798,
      "lng": 2.712616
    }
  },
  {
    "name": "Eurocop",
    "address": "Mallorca",
    "area": "Andratx",
    "category": "supermarkets",
    "rating": 0,
    "verified": false,
    "location": {
      "lat": 39.578742,
      "lng": 2.352513
    }
  },
  {
    "name": "San Telmo",
    "address": "Mallorca",
    "area": "Andratx",
    "category": "supermarkets",
    "rating": 0,
    "verified": false,
    "location": {
      "lat": 39.579082,
      "lng": 2.352649
    }
  },
  {
    "name": "Spar",
    "address": "Mallorca",
    "area": "Calvià",
    "category": "supermarkets",
    "rating": 0,
    "verified": false,
    "location": {
      "lat": 39.522388,
      "lng": 2.537851
    }
  },
  {
    "name": "Supermarket Tolo",
    "address": "Mallorca",
    "area": "Palma",
    "category": "supermarkets",
    "rating": 0,
    "verified": false,
    "location": {
      "lat": 39.53321,
      "lng": 2.723704
    }
  },
  {
    "name": "Supermarket",
    "address": "Mallorca",
    "area": "Palma",
    "category": "supermarkets",
    "rating": 0,
    "verified": false,
    "location": {
      "lat": 39.533273,
      "lng": 2.723617
    }
  },
  {
    "name": "Narvarez",
    "address": "Mallorca",
    "area": "Palma",
    "category": "supermarkets",
    "rating": 0,
    "verified": false,
    "location": {
      "lat": 39.531688,
      "lng": 2.72655
    }
  },
  {
    "name": "Eroski",
    "address": "Mallorca",
    "area": "Palma",
    "category": "supermarkets",
    "rating": 0,
    "verified": false,
    "location": {
      "lat": 39.535633,
      "lng": 2.718014
    },
    "phone": "+34 971745710",
    "website": "https://www.eroski.es/localizador-de-tiendas/supermercado/baleares/palma/eroskicity-can-pastilla",
    "hours": {
      "open": "09:00-21:00; Th,Su off",
      "close": ""
    }
  },
  {
    "name": "Spar",
    "address": "Avinguda de Bartomeu Riutort, Can Pastilla",
    "area": "Llucmajor",
    "category": "supermarkets",
    "rating": 0,
    "verified": false,
    "location": {
      "lat": 39.536574,
      "lng": 2.717017
    },
    "phone": "+34 971 26 74 05",
    "website": "https://spar.es",
    "hours": {
      "open": "09:00-21:00; Su off",
      "close": ""
    }
  },
  {
    "name": "Aprop",
    "address": "Cab Blanc",
    "area": "Llucmajor",
    "category": "supermarkets",
    "rating": 0,
    "verified": false,
    "location": {
      "lat": 39.45606,
      "lng": 2.752416
    }
  },
  {
    "name": "Alcampo",
    "address": "Marratxí",
    "area": "Marratxí",
    "category": "supermarkets",
    "rating": 0,
    "verified": false,
    "location": {
      "lat": 39.616416,
      "lng": 2.705613
    },
    "phone": "+34 971 604121",
    "hours": {
      "open": "Mo-Sa 09:00-22:00",
      "close": ""
    }
  },
  {
    "name": "Spar",
    "address": "Mallorca",
    "area": "Esporles",
    "category": "supermarkets",
    "rating": 0,
    "verified": false,
    "location": {
      "lat": 39.666109,
      "lng": 2.578165
    }
  },
  {
    "name": "Mercadona",
    "address": "Mallorca",
    "area": "Llucmajor",
    "category": "supermarkets",
    "rating": 0,
    "verified": false,
    "location": {
      "lat": 39.500011,
      "lng": 2.755619
    },
    "website": "https://www.mercadona.es"
  },
  {
    "name": "Eroski City",
    "address": "23, carrer de Ramon de Montcada",
    "area": "Calvià",
    "category": "supermarkets",
    "rating": 0,
    "verified": false,
    "location": {
      "lat": 39.519319,
      "lng": 2.479167
    },
    "hours": {
      "open": "Mo-Su 09:00-21:30",
      "close": ""
    }
  },
  {
    "name": "BIP BIP",
    "address": "32, carrer de Ramon de Montcada",
    "area": "Calvià",
    "category": "supermarkets",
    "rating": 0,
    "verified": false,
    "location": {
      "lat": 39.519257,
      "lng": 2.48101
    }
  },
  {
    "name": "Eurocop",
    "address": "Mallorca",
    "area": "Andratx",
    "category": "supermarkets",
    "rating": 0,
    "verified": false,
    "location": {
      "lat": 39.538843,
      "lng": 2.422937
    }
  },
  {
    "name": "Aprop Supermercat",
    "address": "Carrer de Sant Jaume, Soller",
    "area": "Sóller",
    "category": "supermarkets",
    "rating": 0,
    "verified": false,
    "location": {
      "lat": 39.765954,
      "lng": 2.717086
    },
    "phone": "+34 971638478",
    "hours": {
      "open": "Mo-Sa 08:30-20:30; Su 08:30-14:30",
      "close": ""
    }
  },
  {
    "name": "Eroski",
    "address": "Mallorca",
    "area": "Palma",
    "category": "supermarkets",
    "rating": 0,
    "verified": false,
    "location": {
      "lat": 39.603028,
      "lng": 2.68739
    }
  },
  {
    "name": "Eroski City",
    "address": "Mallorca",
    "area": "Palma",
    "category": "supermarkets",
    "rating": 0,
    "verified": false,
    "location": {
      "lat": 39.588559,
      "lng": 2.679888
    }
  },
  {
    "name": "Eroski",
    "address": "Mallorca",
    "area": "Palma",
    "category": "supermarkets",
    "rating": 0,
    "verified": false,
    "location": {
      "lat": 39.594337,
      "lng": 2.685022
    },
    "hours": {
      "open": "Mo-Sa 09:00-21:15",
      "close": ""
    }
  },
  {
    "name": "Eroski",
    "address": "Mallorca",
    "area": "Palma",
    "category": "supermarkets",
    "rating": 0,
    "verified": false,
    "location": {
      "lat": 39.592472,
      "lng": 2.633982
    }
  },
  {
    "name": "Mercadona",
    "address": "Mallorca",
    "area": "Palma",
    "category": "supermarkets",
    "rating": 0,
    "verified": false,
    "location": {
      "lat": 39.571285,
      "lng": 2.661128
    },
    "hours": {
      "open": "Mo-Sa 09:00-21:30",
      "close": ""
    }
  },
  {
    "name": "Carrefour",
    "address": "Mallorca",
    "area": "Palma",
    "category": "supermarkets",
    "rating": 0,
    "verified": false,
    "location": {
      "lat": 39.551124,
      "lng": 2.620549
    },
    "hours": {
      "open": "Mo-Su 09:00-22:00",
      "close": ""
    }
  },
  {
    "name": "Eroski",
    "address": "Mallorca",
    "area": "Andratx",
    "category": "supermarkets",
    "rating": 0,
    "verified": false,
    "location": {
      "lat": 39.545469,
      "lng": 2.390315
    },
    "hours": {
      "open": "Mo-Su 09:00-21:30",
      "close": ""
    }
  },
  {
    "name": "Coaliment",
    "address": "8, Carrer del Marquès de Vivot, Valldemossa",
    "area": "Valldemossa",
    "category": "supermarkets",
    "rating": 0,
    "verified": false,
    "location": {
      "lat": 39.710439,
      "lng": 2.621602
    },
    "hours": {
      "open": "Mo-Su 09:00-20:30",
      "close": ""
    }
  },
  {
    "name": "Coaliment",
    "address": "Mallorca",
    "area": "Sóller",
    "category": "supermarkets",
    "rating": 0,
    "verified": false,
    "location": {
      "lat": 39.782417,
      "lng": 2.741093
    },
    "hours": {
      "open": "Mo-Sa 07:00-20:30; Su,PH 07:30-20:00",
      "close": ""
    }
  },
  {
    "name": "Supercor",
    "address": "Mallorca",
    "area": "Palma",
    "category": "supermarkets",
    "rating": 0,
    "verified": false,
    "location": {
      "lat": 39.588243,
      "lng": 2.625015
    }
  },
  {
    "name": "Aprop",
    "address": "Mallorca",
    "area": "Palma",
    "category": "supermarkets",
    "rating": 0,
    "verified": false,
    "location": {
      "lat": 39.574824,
      "lng": 2.640897
    },
    "hours": {
      "open": "Mo-Sa 09:00-24:00",
      "close": ""
    }
  },
  {
    "name": "Mercadona",
    "address": "Mallorca",
    "area": "Palma",
    "category": "supermarkets",
    "rating": 0,
    "verified": false,
    "location": {
      "lat": 39.575824,
      "lng": 2.640812
    },
    "website": "https://www.mercadona.es"
  },
  {
    "name": "Eroski",
    "address": "general ricardo ortega",
    "area": "Palma",
    "category": "supermarkets",
    "rating": 0,
    "verified": false,
    "location": {
      "lat": 39.570108,
      "lng": 2.658304
    }
  },
  {
    "name": "Lepanto",
    "address": "Mallorca",
    "area": "Sóller",
    "category": "supermarkets",
    "rating": 0,
    "verified": false,
    "location": {
      "lat": 39.795556,
      "lng": 2.697126
    }
  },
  {
    "name": "Caracas",
    "address": "Mallorca",
    "area": "Calvià",
    "category": "supermarkets",
    "rating": 0,
    "verified": false,
    "location": {
      "lat": 39.497255,
      "lng": 2.534962
    }
  },
  {
    "name": "Supermarket",
    "address": "Mallorca",
    "area": "Calvià",
    "category": "supermarkets",
    "rating": 0,
    "verified": false,
    "location": {
      "lat": 39.511625,
      "lng": 2.537991
    }
  },
  {
    "name": "Eroski",
    "address": "25b, Plaça dels Hostals, Santa Maria del Camí",
    "area": "Santa Maria del Camí",
    "category": "supermarkets",
    "rating": 0,
    "verified": false,
    "location": {
      "lat": 39.650898,
      "lng": 2.773127
    }
  },
  {
    "name": "Mini Market",
    "address": "Mallorca",
    "area": "Calvià",
    "category": "supermarkets",
    "rating": 0,
    "verified": false,
    "location": {
      "lat": 39.532655,
      "lng": 2.459965
    },
    "hours": {
      "open": "Mo-Su 08:00-13:00,16:00-19:00",
      "close": ""
    }
  },
  {
    "name": "Duty Free",
    "address": "Mallorca",
    "area": "Palma",
    "category": "supermarkets",
    "rating": 0,
    "verified": false,
    "location": {
      "lat": 39.549289,
      "lng": 2.736516
    }
  },
  {
    "name": "Bip Bip",
    "address": "Mallorca",
    "area": "Bunyola",
    "category": "supermarkets",
    "rating": 0,
    "verified": false,
    "location": {
      "lat": 39.6957,
      "lng": 2.699935
    }
  },
  {
    "name": "Eroski",
    "address": "Mallorca",
    "area": "Palma",
    "category": "supermarkets",
    "rating": 0,
    "verified": false,
    "location": {
      "lat": 39.57159,
      "lng": 2.651251
    }
  },
  {
    "name": "Mercadona",
    "address": "26, Carrer d'Aragó, Palma de Mallorca",
    "area": "Palma",
    "category": "supermarkets",
    "rating": 0,
    "verified": false,
    "location": {
      "lat": 39.575108,
      "lng": 2.659301
    },
    "phone": "+34 971 77 10 70",
    "website": "https://www.mercadona.es"
  },
  {
    "name": "Casa Pepe",
    "address": "10, gran via del Puig de Galatzó, Santa Ponça",
    "area": "Calvià",
    "category": "supermarkets",
    "rating": 0,
    "verified": false,
    "location": {
      "lat": 39.516599,
      "lng": 2.481398
    },
    "phone": "+34 971 690214"
  },
  {
    "name": "Spar",
    "address": "Mallorca",
    "area": "Andratx",
    "category": "supermarkets",
    "rating": 0,
    "verified": false,
    "location": {
      "lat": 39.537905,
      "lng": 2.451426
    }
  },
  {
    "name": "Spar",
    "address": "Mallorca",
    "area": "Andratx",
    "category": "supermarkets",
    "rating": 0,
    "verified": false,
    "location": {
      "lat": 39.535781,
      "lng": 2.454844
    }
  },
  {
    "name": "Superdeal",
    "address": "Mallorca",
    "area": "Andratx",
    "category": "supermarkets",
    "rating": 0,
    "verified": false,
    "location": {
      "lat": 39.53544,
      "lng": 2.454785
    }
  },
  {
    "name": "Spar",
    "address": "Mallorca",
    "area": "Calvià",
    "category": "supermarkets",
    "rating": 0,
    "verified": false,
    "location": {
      "lat": 39.519455,
      "lng": 2.535529
    }
  },
  {
    "name": "RETI",
    "address": "Mallorca",
    "area": "Palma",
    "category": "supermarkets",
    "rating": 0,
    "verified": false,
    "location": {
      "lat": 39.585354,
      "lng": 2.61742
    }
  },
  {
    "name": "A Prop",
    "address": "Mallorca",
    "area": "Andratx",
    "category": "supermarkets",
    "rating": 0,
    "verified": false,
    "location": {
      "lat": 39.542559,
      "lng": 2.387937
    }
  },
  {
    "name": "Eroski",
    "address": "5a, Plaça Nova, Santa Maria del Camí",
    "area": "Santa Maria del Camí",
    "category": "supermarkets",
    "rating": 0,
    "verified": false,
    "location": {
      "lat": 39.649009,
      "lng": 2.778372
    },
    "hours": {
      "open": "Mo-Sa 09:00-21:30; Su 09:00-14:00",
      "close": ""
    }
  },
  {
    "name": "Supermarket",
    "address": "Mallorca",
    "area": "Alaró",
    "category": "supermarkets",
    "rating": 0,
    "verified": false,
    "location": {
      "lat": 39.703973,
      "lng": 2.792338
    }
  },
  {
    "name": "HiperDino Express",
    "address": "Mallorca",
    "area": "Andratx",
    "category": "supermarkets",
    "rating": 0,
    "verified": false,
    "location": {
      "lat": 39.537008,
      "lng": 2.446987
    },
    "hours": {
      "open": "Mo-Su 09:00-21:00",
      "close": ""
    }
  },
  {
    "name": "Aprop",
    "address": "Mallorca",
    "area": "Sóller",
    "category": "supermarkets",
    "rating": 0,
    "verified": false,
    "location": {
      "lat": 39.79732,
      "lng": 2.698015
    }
  },
  {
    "name": "Supermarket",
    "address": "Mallorca",
    "area": "Palma",
    "category": "supermarkets",
    "rating": 0,
    "verified": false,
    "location": {
      "lat": 39.53512,
      "lng": 2.712385
    }
  },
  {
    "name": "Yacht Provisioning",
    "address": "Mallorca",
    "area": "Palma",
    "category": "supermarkets",
    "rating": 0,
    "verified": false,
    "location": {
      "lat": 39.554171,
      "lng": 2.624499
    }
  },
  {
    "name": "Eroski City",
    "address": "36, Avinguda de Joan Miró, Palma de Mallorca",
    "area": "Palma",
    "category": "supermarkets",
    "rating": 0,
    "verified": false,
    "location": {
      "lat": 39.564046,
      "lng": 2.625897
    },
    "phone": "+34 971 28 33 66",
    "hours": {
      "open": "Mo-Su 08:00-23:00",
      "close": ""
    }
  },
  {
    "name": "Eroski City",
    "address": "Mallorca",
    "area": "Alaró",
    "category": "supermarkets",
    "rating": 0,
    "verified": false,
    "location": {
      "lat": 39.7058,
      "lng": 2.792066
    },
    "hours": {
      "open": "Mo-Sa 09:00-21:00; Su off",
      "close": ""
    }
  },
  {
    "name": "Sa Botiga des Port",
    "address": "Mallorca",
    "area": "Sóller",
    "category": "supermarkets",
    "rating": 0,
    "verified": false,
    "location": {
      "lat": 39.796495,
      "lng": 2.697333
    }
  },
  {
    "name": "Spar",
    "address": "Mallorca",
    "area": "Calvià",
    "category": "supermarkets",
    "rating": 0,
    "verified": false,
    "location": {
      "lat": 39.507977,
      "lng": 2.531372
    }
  },
  {
    "name": "Spar",
    "address": "25, Carrer de Santa Catalina Tomàs, Santa Maria del Camí",
    "area": "Santa Maria del Camí",
    "category": "supermarkets",
    "rating": 0,
    "verified": false,
    "location": {
      "lat": 39.652081,
      "lng": 2.771397
    }
  },
  {
    "name": "Oasis",
    "address": "Santa Ponça",
    "area": "Calvià",
    "category": "supermarkets",
    "rating": 0,
    "verified": false,
    "location": {
      "lat": 39.51333,
      "lng": 2.479864
    }
  },
  {
    "name": "Spar",
    "address": "2, carrer de Lisboa, Santa Ponça",
    "area": "Calvià",
    "category": "supermarkets",
    "rating": 0,
    "verified": false,
    "location": {
      "lat": 39.51333,
      "lng": 2.480078
    }
  },
  {
    "name": "Nella",
    "address": "via del Rei Sanxo, Santa Ponça",
    "area": "Calvià",
    "category": "supermarkets",
    "rating": 0,
    "verified": false,
    "location": {
      "lat": 39.513021,
      "lng": 2.482426
    }
  },
  {
    "name": "Super Kike Sweets",
    "address": "Santa Ponça",
    "area": "Calvià",
    "category": "supermarkets",
    "rating": 0,
    "verified": false,
    "location": {
      "lat": 39.51793,
      "lng": 2.480985
    }
  },
  {
    "name": "Ses Canteres",
    "address": "Santa Ponça",
    "area": "Calvià",
    "category": "supermarkets",
    "rating": 0,
    "verified": false,
    "location": {
      "lat": 39.512884,
      "lng": 2.483061
    }
  },
  {
    "name": "Isla",
    "address": "Santa Ponça",
    "area": "Calvià",
    "category": "supermarkets",
    "rating": 0,
    "verified": false,
    "location": {
      "lat": 39.515995,
      "lng": 2.482303
    }
  },
  {
    "name": "Spar",
    "address": "Santa Ponça",
    "area": "Calvià",
    "category": "supermarkets",
    "rating": 0,
    "verified": false,
    "location": {
      "lat": 39.516089,
      "lng": 2.482532
    }
  },
  {
    "name": "Pri Nas",
    "address": "Santa Ponça",
    "area": "Calvià",
    "category": "supermarkets",
    "rating": 0,
    "verified": false,
    "location": {
      "lat": 39.517351,
      "lng": 2.485206
    }
  },
  {
    "name": "Luis",
    "address": "Santa Ponça",
    "area": "Calvià",
    "category": "supermarkets",
    "rating": 0,
    "verified": false,
    "location": {
      "lat": 39.515616,
      "lng": 2.482743
    }
  },
  {
    "name": "HiperDino Express Supermarcat",
    "address": "Mallorca",
    "area": "Calvià",
    "category": "supermarkets",
    "rating": 0,
    "verified": false,
    "location": {
      "lat": 39.520574,
      "lng": 2.472169
    },
    "hours": {
      "open": "09:00-23:45",
      "close": ""
    }
  },
  {
    "name": "Eroski",
    "address": "Mallorca",
    "area": "Calvià",
    "category": "supermarkets",
    "rating": 0,
    "verified": false,
    "location": {
      "lat": 39.525295,
      "lng": 2.539617
    }
  },
  {
    "name": "Eroski",
    "address": "Mallorca",
    "area": "Palma",
    "category": "supermarkets",
    "rating": 0,
    "verified": false,
    "location": {
      "lat": 39.581151,
      "lng": 2.656068
    }
  },
  {
    "name": "Supermarket",
    "address": "Mallorca",
    "area": "Palma",
    "category": "supermarkets",
    "rating": 0,
    "verified": false,
    "location": {
      "lat": 39.580274,
      "lng": 2.655944
    }
  },
  {
    "name": "Eroski",
    "address": "Mallorca",
    "area": "Palma",
    "category": "supermarkets",
    "rating": 0,
    "verified": false,
    "location": {
      "lat": 39.607936,
      "lng": 2.636971
    }
  },
  {
    "name": "Bip bip",
    "address": "Mallorca",
    "area": "Palma",
    "category": "supermarkets",
    "rating": 0,
    "verified": false,
    "location": {
      "lat": 39.587773,
      "lng": 2.660649
    }
  },
  {
    "name": "Supermarket",
    "address": "Mallorca",
    "area": "Palma",
    "category": "supermarkets",
    "rating": 0,
    "verified": false,
    "location": {
      "lat": 39.570621,
      "lng": 2.652232
    }
  },
  {
    "name": "Eroski",
    "address": "Mallorca",
    "area": "Palma",
    "category": "supermarkets",
    "rating": 0,
    "verified": false,
    "location": {
      "lat": 39.569401,
      "lng": 2.645617
    },
    "hours": {
      "open": "Mo-Su 09:00-21:00",
      "close": ""
    }
  },
  {
    "name": "Eroski",
    "address": "Mallorca",
    "area": "Palma",
    "category": "supermarkets",
    "rating": 0,
    "verified": false,
    "location": {
      "lat": 39.572736,
      "lng": 2.645125
    }
  },
  {
    "name": "Torà",
    "address": "9 local 5, carrer Eucaliptus",
    "area": "Andratx",
    "category": "supermarkets",
    "rating": 0,
    "verified": false,
    "location": {
      "lat": 39.538548,
      "lng": 2.447698
    },
    "phone": "+34 971687207"
  },
  {
    "name": "Spar",
    "address": "Mallorca",
    "area": "Palma",
    "category": "supermarkets",
    "rating": 0,
    "verified": false,
    "location": {
      "lat": 39.500579,
      "lng": 2.752208
    }
  },
  {
    "name": "Ohio",
    "address": "Mallorca",
    "area": "Calvià",
    "category": "supermarkets",
    "rating": 0,
    "verified": false,
    "location": {
      "lat": 39.536406,
      "lng": 2.45729
    }
  },
  {
    "name": "Torà Beach",
    "address": "Mallorca",
    "area": "Calvià",
    "category": "supermarkets",
    "rating": 0,
    "verified": false,
    "location": {
      "lat": 39.536133,
      "lng": 2.456268
    }
  },
  {
    "name": "Eroski",
    "address": "Mallorca",
    "area": "Palma",
    "category": "supermarkets",
    "rating": 0,
    "verified": false,
    "location": {
      "lat": 39.571051,
      "lng": 2.637804
    },
    "hours": {
      "open": "Mo-Sa 09:00-21:00",
      "close": ""
    }
  },
  {
    "name": "Eroski",
    "address": "Mallorca",
    "area": "Palma",
    "category": "supermarkets",
    "rating": 0,
    "verified": false,
    "location": {
      "lat": 39.572895,
      "lng": 2.636688
    }
  },
  {
    "name": "Spar",
    "address": "Mallorca",
    "area": "Llucmajor",
    "category": "supermarkets",
    "rating": 0,
    "verified": false,
    "location": {
      "lat": 39.496955,
      "lng": 2.756072
    }
  },
  {
    "name": "Supermarket",
    "address": "Mallorca",
    "area": "Palma",
    "category": "supermarkets",
    "rating": 0,
    "verified": false,
    "location": {
      "lat": 39.579943,
      "lng": 2.66183
    }
  },
  {
    "name": "Eroski",
    "address": "Mallorca",
    "area": "Palma",
    "category": "supermarkets",
    "rating": 0,
    "verified": false,
    "location": {
      "lat": 39.579495,
      "lng": 2.651344
    },
    "hours": {
      "open": "Mo-Sa 08:30-21:00, 09:00-18:00; Su 09:00-14:00",
      "close": ""
    }
  },
  {
    "name": "BIP",
    "address": "Mallorca",
    "area": "Palma",
    "category": "supermarkets",
    "rating": 0,
    "verified": false,
    "location": {
      "lat": 39.56888,
      "lng": 2.660603
    }
  },
  {
    "name": "Supermarket",
    "address": "Mallorca",
    "area": "Calvià",
    "category": "supermarkets",
    "rating": 0,
    "verified": false,
    "location": {
      "lat": 39.50783,
      "lng": 2.530216
    }
  },
  {
    "name": "Bip Bip",
    "address": "Mallorca",
    "area": "Palma",
    "category": "supermarkets",
    "rating": 0,
    "verified": false,
    "location": {
      "lat": 39.580983,
      "lng": 2.670206
    }
  },
  {
    "name": "Suma",
    "address": "Mallorca",
    "area": "Palma",
    "category": "supermarkets",
    "rating": 0,
    "verified": false,
    "location": {
      "lat": 39.601458,
      "lng": 2.616721
    }
  },
  {
    "name": "Coaliment",
    "address": "Mallorca",
    "area": "Andratx",
    "category": "supermarkets",
    "rating": 0,
    "verified": false,
    "location": {
      "lat": 39.537774,
      "lng": 2.450457
    },
    "hours": {
      "open": "Mo-Su 09:00-23:45",
      "close": ""
    }
  },
  {
    "name": "S15 Supermarket",
    "address": "Mallorca",
    "area": "Palma",
    "category": "supermarkets",
    "rating": 0,
    "verified": false,
    "location": {
      "lat": 39.533631,
      "lng": 2.722962
    }
  },
  {
    "name": "Spar",
    "address": "Mallorca",
    "area": "Calvià",
    "category": "supermarkets",
    "rating": 0,
    "verified": false,
    "location": {
      "lat": 39.512561,
      "lng": 2.536846
    }
  },
  {
    "name": "Eroski City",
    "address": "41, Carrer del General Ricardo Ortega",
    "area": "Palma",
    "category": "supermarkets",
    "rating": 0,
    "verified": false,
    "location": {
      "lat": 39.56951,
      "lng": 2.662868
    },
    "hours": {
      "open": "Mo-Sa 08:30-21:00; Su 09:00-14:00",
      "close": ""
    }
  },
  {
    "name": "Super Lieu",
    "address": "Mallorca",
    "area": "Andratx",
    "category": "supermarkets",
    "rating": 0,
    "verified": false,
    "location": {
      "lat": 39.538525,
      "lng": 2.421911
    }
  },
  {
    "name": "Coaliment",
    "address": "Avinguda Gabriel Covas Alemany, Camp de Mar",
    "area": "Calvià",
    "category": "supermarkets",
    "rating": 0,
    "verified": false,
    "location": {
      "lat": 39.537861,
      "lng": 2.422031
    }
  },
  {
    "name": "Marchena",
    "address": "Mallorca",
    "area": "Andratx",
    "category": "supermarkets",
    "rating": 0,
    "verified": false,
    "location": {
      "lat": 39.538569,
      "lng": 2.422985
    }
  },
  {
    "name": "Supermarket",
    "address": "Mallorca",
    "area": "Andratx",
    "category": "supermarkets",
    "rating": 0,
    "verified": false,
    "location": {
      "lat": 39.573402,
      "lng": 2.420528
    }
  },
  {
    "name": "Mercadona",
    "address": "Mallorca",
    "area": "Palma",
    "category": "supermarkets",
    "rating": 0,
    "verified": false,
    "location": {
      "lat": 39.57359,
      "lng": 2.653233
    }
  },
  {
    "name": "Spar",
    "address": "Mallorca",
    "area": "Calvià",
    "category": "supermarkets",
    "rating": 0,
    "verified": false,
    "location": {
      "lat": 39.510361,
      "lng": 2.531483
    }
  },
  {
    "name": "Eroski",
    "address": "Mallorca",
    "area": "Palma",
    "category": "supermarkets",
    "rating": 0,
    "verified": false,
    "location": {
      "lat": 39.577593,
      "lng": 2.666923
    }
  },
  {
    "name": "Spar",
    "address": "Mallorca",
    "area": "Llucmajor",
    "category": "supermarkets",
    "rating": 0,
    "verified": false,
    "location": {
      "lat": 39.498881,
      "lng": 2.754239
    }
  },
  {
    "name": "Suma",
    "address": "Mallorca",
    "area": "Calvià",
    "category": "supermarkets",
    "rating": 0,
    "verified": false,
    "location": {
      "lat": 39.513103,
      "lng": 2.478261
    }
  },
  {
    "name": "HiperDino Express Supermarcat",
    "address": "2, carrer de Ramon de Montcada",
    "area": "Calvià",
    "category": "supermarkets",
    "rating": 0,
    "verified": false,
    "location": {
      "lat": 39.520673,
      "lng": 2.472704
    },
    "hours": {
      "open": "09:00-23:00",
      "close": ""
    }
  },
  {
    "name": "El Bodegón",
    "address": "Mallorca",
    "area": "Calvià",
    "category": "supermarkets",
    "rating": 0,
    "verified": false,
    "location": {
      "lat": 39.579241,
      "lng": 2.468887
    }
  },
  {
    "name": "Spar",
    "address": "Mallorca",
    "area": "Andratx",
    "category": "supermarkets",
    "rating": 0,
    "verified": false,
    "location": {
      "lat": 39.537883,
      "lng": 2.452541
    }
  },
  {
    "name": "Eroski City",
    "address": "Mallorca",
    "area": "Palma",
    "category": "supermarkets",
    "rating": 0,
    "verified": false,
    "location": {
      "lat": 39.567102,
      "lng": 2.658701
    }
  },
  {
    "name": "El petit mercat",
    "address": "Mallorca",
    "area": "Palma",
    "category": "supermarkets",
    "rating": 0,
    "verified": false,
    "location": {
      "lat": 39.566912,
      "lng": 2.65871
    }
  },
  {
    "name": "Natural Wish",
    "address": "Mallorca",
    "area": "Palma",
    "category": "supermarkets",
    "rating": 0,
    "verified": false,
    "location": {
      "lat": 39.561832,
      "lng": 2.674104
    }
  },
  {
    "name": "Salamande",
    "address": "Mallorca",
    "area": "Andratx",
    "category": "supermarkets",
    "rating": 0,
    "verified": false,
    "location": {
      "lat": 39.537417,
      "lng": 2.453832
    }
  },
  {
    "name": "PS",
    "address": "Mallorca",
    "area": "Andratx",
    "category": "supermarkets",
    "rating": 0,
    "verified": false,
    "location": {
      "lat": 39.537779,
      "lng": 2.453121
    }
  },
  {
    "name": "Reina",
    "address": "Mallorca",
    "area": "Andratx",
    "category": "supermarkets",
    "rating": 0,
    "verified": false,
    "location": {
      "lat": 39.537433,
      "lng": 2.448351
    }
  },
  {
    "name": "Supermarket",
    "address": "Mallorca",
    "area": "Andratx",
    "category": "supermarkets",
    "rating": 0,
    "verified": false,
    "location": {
      "lat": 39.537235,
      "lng": 2.447366
    }
  },
  {
    "name": "Suma",
    "address": "Mallorca",
    "area": "Palma",
    "category": "supermarkets",
    "rating": 0,
    "verified": false,
    "location": {
      "lat": 39.53804,
      "lng": 2.714838
    }
  },
  {
    "name": "Veritas",
    "address": "2, Avinguda de Gabriel Roca i Garcias, Andratx",
    "area": "Andratx",
    "category": "supermarkets",
    "rating": 0,
    "verified": false,
    "location": {
      "lat": 39.54604,
      "lng": 2.390838
    },
    "phone": "+34871902503",
    "website": "https://www.veritas.es",
    "hours": {
      "open": "Mo-Su 09:00-21:30",
      "close": ""
    }
  },
  {
    "name": "Eroski City",
    "address": "Mallorca",
    "area": "Palma",
    "category": "supermarkets",
    "rating": 0,
    "verified": false,
    "location": {
      "lat": 39.553516,
      "lng": 2.694851
    }
  },
  {
    "name": "Suma",
    "address": "Mallorca",
    "area": "Palma",
    "category": "supermarkets",
    "rating": 0,
    "verified": false,
    "location": {
      "lat": 39.571479,
      "lng": 2.652539
    }
  },
  {
    "name": "Sa Teulera",
    "address": "11, Carrer de Cecili Metel",
    "area": "Palma",
    "category": "supermarkets",
    "rating": 0,
    "verified": false,
    "location": {
      "lat": 39.576246,
      "lng": 2.649778
    },
    "phone": "+34 971 969139",
    "website": "https://ecosateulera.com/",
    "hours": {
      "open": "Mo-Fr 09:00-20:00; Sa 09:00-14:00",
      "close": ""
    }
  },
  {
    "name": "Bio Kalma",
    "address": "Mallorca",
    "area": "Palma",
    "category": "supermarkets",
    "rating": 0,
    "verified": false,
    "location": {
      "lat": 39.570406,
      "lng": 2.653322
    }
  },
  {
    "name": "Eroski City",
    "address": "Mallorca",
    "area": "Palma",
    "category": "supermarkets",
    "rating": 0,
    "verified": false,
    "location": {
      "lat": 39.586151,
      "lng": 2.658494
    }
  },
  {
    "name": "Dia",
    "address": "Mallorca",
    "area": "Palma",
    "category": "supermarkets",
    "rating": 0,
    "verified": false,
    "location": {
      "lat": 39.582377,
      "lng": 2.66017
    }
  },
  {
    "name": "Casa Latinos",
    "address": "Mallorca",
    "area": "Palma",
    "category": "supermarkets",
    "rating": 0,
    "verified": false,
    "location": {
      "lat": 39.579332,
      "lng": 2.654287
    }
  },
  {
    "name": "Supermarket",
    "address": "Mallorca",
    "area": "Palma",
    "category": "supermarkets",
    "rating": 0,
    "verified": false,
    "location": {
      "lat": 39.570581,
      "lng": 2.638301
    }
  },
  {
    "name": "Eroski City",
    "address": "Mallorca",
    "area": "Palma",
    "category": "supermarkets",
    "rating": 0,
    "verified": false,
    "location": {
      "lat": 39.605914,
      "lng": 2.676023
    }
  },
  {
    "name": "Veritas",
    "address": "9, Carrer de l'Emperadriu Eugènia",
    "area": "Palma",
    "category": "supermarkets",
    "rating": 0,
    "verified": false,
    "location": {
      "lat": 39.584358,
      "lng": 2.649851
    },
    "phone": "+34 871 904585",
    "website": "https://www.veritas.es/",
    "hours": {
      "open": "Mo-Sa 09:15-21:30",
      "close": ""
    }
  },
  {
    "name": "Aprop",
    "address": "Mallorca",
    "area": "Bunyola",
    "category": "supermarkets",
    "rating": 0,
    "verified": false,
    "location": {
      "lat": 39.660491,
      "lng": 2.667271
    }
  },
  {
    "name": "Eroski City",
    "address": "Mallorca",
    "area": "Palma",
    "category": "supermarkets",
    "rating": 0,
    "verified": false,
    "location": {
      "lat": 39.583006,
      "lng": 2.673237
    }
  },
  {
    "name": "Aprop",
    "address": "Mallorca",
    "area": "Palma",
    "category": "supermarkets",
    "rating": 0,
    "verified": false,
    "location": {
      "lat": 39.578453,
      "lng": 2.715582
    }
  },
  {
    "name": "Musicasa Pianos",
    "address": "Mallorca",
    "area": "Palma",
    "category": "supermarkets",
    "rating": 0,
    "verified": false,
    "location": {
      "lat": 39.57595,
      "lng": 2.643892
    }
  },
  {
    "name": "Foto cardona",
    "address": "Mallorca",
    "area": "Palma",
    "category": "supermarkets",
    "rating": 0,
    "verified": false,
    "location": {
      "lat": 39.574491,
      "lng": 2.643063
    }
  },
  {
    "name": "DKV seguros",
    "address": "Mallorca",
    "area": "Palma",
    "category": "supermarkets",
    "rating": 0,
    "verified": false,
    "location": {
      "lat": 39.574681,
      "lng": 2.641135
    }
  },
  {
    "name": "Super Market Casa Vila",
    "address": "Mallorca",
    "area": "Palma",
    "category": "supermarkets",
    "rating": 0,
    "verified": false,
    "location": {
      "lat": 39.569261,
      "lng": 2.650798
    }
  },
  {
    "name": "Eroski",
    "address": "Mallorca",
    "area": "Palma",
    "category": "supermarkets",
    "rating": 0,
    "verified": false,
    "location": {
      "lat": 39.551415,
      "lng": 2.600042
    },
    "hours": {
      "open": "Mo-Su 09:00-21:30",
      "close": ""
    }
  },
  {
    "name": "Supermarket Coaliment",
    "address": "Mallorca",
    "area": "Calvià",
    "category": "supermarkets",
    "rating": 0,
    "verified": false,
    "location": {
      "lat": 39.51427,
      "lng": 2.537073
    }
  },
  {
    "name": "IFA",
    "address": "Mallorca",
    "area": "Sóller",
    "category": "supermarkets",
    "rating": 0,
    "verified": false,
    "location": {
      "lat": 39.77225,
      "lng": 2.708139
    }
  },
  {
    "name": "Spar",
    "address": "Mallorca",
    "area": "Palma",
    "category": "supermarkets",
    "rating": 0,
    "verified": false,
    "location": {
      "lat": 39.578094,
      "lng": 2.672192
    }
  },
  {
    "name": "Eroski City",
    "address": "Mallorca",
    "area": "Palma",
    "category": "supermarkets",
    "rating": 0,
    "verified": false,
    "location": {
      "lat": 39.575961,
      "lng": 2.636512
    }
  },
  {
    "name": "Más Q Meno",
    "address": "Mallorca",
    "area": "Palma",
    "category": "supermarkets",
    "rating": 0,
    "verified": false,
    "location": {
      "lat": 39.5487,
      "lng": 2.729443
    }
  },
  {
    "name": "Eroski",
    "address": "Mallorca",
    "area": "Palma",
    "category": "supermarkets",
    "rating": 0,
    "verified": false,
    "location": {
      "lat": 39.578364,
      "lng": 2.640147
    }
  },
  {
    "name": "BIP",
    "address": "Mallorca",
    "area": "Palma",
    "category": "supermarkets",
    "rating": 0,
    "verified": false,
    "location": {
      "lat": 39.584812,
      "lng": 2.635494
    }
  },
  {
    "name": "Eroski",
    "address": "51, Carrer dels Reis Catòlics",
    "area": "Palma",
    "category": "supermarkets",
    "rating": 0,
    "verified": false,
    "location": {
      "lat": 39.573941,
      "lng": 2.669765
    },
    "website": "https://eroski.es",
    "hours": {
      "open": "Mo-Sa 09:30-21:30",
      "close": ""
    }
  },
  {
    "name": "Bip Bip",
    "address": "Mallorca",
    "area": "Calvià",
    "category": "supermarkets",
    "rating": 0,
    "verified": false,
    "location": {
      "lat": 39.621514,
      "lng": 2.526815
    }
  },
  {
    "name": "Botiga de la Cooperativa de Sant Bartomeu",
    "address": "8, carretera de Fornalutx, Sóller",
    "area": "Sóller",
    "category": "supermarkets",
    "rating": 0,
    "verified": false,
    "location": {
      "lat": 39.769649,
      "lng": 2.725474
    },
    "phone": "+34 971 63 02 94",
    "website": "https://www.coopsoller.coop/",
    "hours": {
      "open": "Mo-Fr 09:00-20:00; Sa 09:00-19:00",
      "close": ""
    }
  },
  {
    "name": "Eroski",
    "address": "Mallorca",
    "area": "Palma",
    "category": "supermarkets",
    "rating": 0,
    "verified": false,
    "location": {
      "lat": 39.570357,
      "lng": 2.632363
    }
  },
  {
    "name": "Bip Bip",
    "address": "1, Carrer de Costa i Llobera, Santa Maria del Camí",
    "area": "Santa Maria del Camí",
    "category": "supermarkets",
    "rating": 0,
    "verified": false,
    "location": {
      "lat": 39.650229,
      "lng": 2.770683
    },
    "website": "https://www.bipbipportalcudia.com/nosotros-santa-maria/",
    "hours": {
      "open": "Mo-Su 08:30-21:45",
      "close": ""
    }
  },
  {
    "name": "Spar",
    "address": "Mallorca",
    "area": "Palma",
    "category": "supermarkets",
    "rating": 0,
    "verified": false,
    "location": {
      "lat": 39.535494,
      "lng": 2.719377
    }
  },
  {
    "name": "Mercadona",
    "address": "Mallorca",
    "area": "Palma",
    "category": "supermarkets",
    "rating": 0,
    "verified": false,
    "location": {
      "lat": 39.580158,
      "lng": 2.654473
    }
  },
  {
    "name": "Eroski City",
    "address": "Mallorca",
    "area": "Palma",
    "category": "supermarkets",
    "rating": 0,
    "verified": false,
    "location": {
      "lat": 39.570871,
      "lng": 2.673302
    }
  },
  {
    "name": "Supermarket",
    "address": "Mallorca",
    "area": "Calvià",
    "category": "supermarkets",
    "rating": 0,
    "verified": false,
    "location": {
      "lat": 39.513531,
      "lng": 2.479122
    }
  },
  {
    "name": "Sol",
    "address": "Mallorca",
    "area": "Palma",
    "category": "supermarkets",
    "rating": 0,
    "verified": false,
    "location": {
      "lat": 39.500762,
      "lng": 2.75223
    }
  },
  {
    "name": "Mercadona",
    "address": "Mallorca",
    "area": "Palma",
    "category": "supermarkets",
    "rating": 0,
    "verified": false,
    "location": {
      "lat": 39.59075,
      "lng": 2.678658
    },
    "website": "https://www.mercadona.es"
  },
  {
    "name": "Mercadona",
    "address": "Carrer de Francesc Salvà i Pizà, escultor, Marratxí",
    "area": "Marratxí",
    "category": "supermarkets",
    "rating": 0,
    "verified": false,
    "location": {
      "lat": 39.595064,
      "lng": 2.690802
    },
    "website": "https://www.mercadona.es"
  },
  {
    "name": "Supermarket",
    "address": "Mallorca",
    "area": "Palma",
    "category": "supermarkets",
    "rating": 0,
    "verified": false,
    "location": {
      "lat": 39.538832,
      "lng": 2.591957
    }
  },
  {
    "name": "Agromart",
    "address": "Mallorca",
    "area": "Palma",
    "category": "supermarkets",
    "rating": 0,
    "verified": false,
    "location": {
      "lat": 39.580939,
      "lng": 2.623965
    }
  },
  {
    "name": "Musicasa",
    "address": "10, Carrer d'en Ramón y Cajal",
    "area": "Palma",
    "category": "supermarkets",
    "rating": 0,
    "verified": false,
    "location": {
      "lat": 39.575719,
      "lng": 2.642342
    }
  },
  {
    "name": "Mercadona",
    "address": "Mallorca",
    "area": "Palma",
    "category": "supermarkets",
    "rating": 0,
    "verified": false,
    "location": {
      "lat": 39.590485,
      "lng": 2.646686
    },
    "website": "https://www.mercadona.es",
    "hours": {
      "open": "Mo-Sa 09:00-21:30",
      "close": ""
    }
  },
  {
    "name": "Carrefour Express",
    "address": "Mallorca",
    "area": "Palma",
    "category": "supermarkets",
    "rating": 0,
    "verified": false,
    "location": {
      "lat": 39.58279,
      "lng": 2.649066
    }
  },
  {
    "name": "Supermercado Bip",
    "address": "3, carrer del Banc de l'Oli",
    "area": "Palma",
    "category": "supermarkets",
    "rating": 0,
    "verified": false,
    "location": {
      "lat": 39.5717,
      "lng": 2.652445
    }
  },
  {
    "name": "Herbolario Palma de Mallorca Vital Way",
    "address": "11, carrer del Baró de Santa Maria del Sepulcre, Palma",
    "area": "Palma",
    "category": "supermarkets",
    "rating": 0,
    "verified": false,
    "location": {
      "lat": 39.573516,
      "lng": 2.644287
    },
    "phone": "+34 971 773273",
    "website": "https://www.vitalway.es/",
    "hours": {
      "open": "Mo-Fr 09:00-20:45; Sa 09:30-14:30, 16:30-20:30",
      "close": ""
    }
  },
  {
    "name": "Lidl",
    "address": "42, Carrer d'Aragó, Palma",
    "area": "Palma",
    "category": "supermarkets",
    "rating": 0,
    "verified": false,
    "location": {
      "lat": 39.576948,
      "lng": 2.660512
    },
    "website": "https://www.lidl.es/",
    "hours": {
      "open": "Mo-Sa 09:00-21:30",
      "close": ""
    }
  },
  {
    "name": "Lidl",
    "address": "5a, Avinguda de Mèxic, Palma",
    "area": "Palma",
    "category": "supermarkets",
    "rating": 0,
    "verified": false,
    "location": {
      "lat": 39.566202,
      "lng": 2.6681
    },
    "hours": {
      "open": "Mo-Sa 09:00-21:30",
      "close": ""
    }
  },
  {
    "name": "Terranostra Supermercat Cooperatiu",
    "address": "24, Carrer d'Alfons el Magnànim, Palma",
    "area": "Palma",
    "category": "supermarkets",
    "rating": 0,
    "verified": false,
    "location": {
      "lat": 39.585137,
      "lng": 2.653149
    },
    "phone": "+34 871 73 40 09",
    "website": "https://terranostra.coop/",
    "hours": {
      "open": "Tu-Fr 10:00-14:00, 16:00-20:00; Sa 10:00-14:00",
      "close": ""
    }
  },
  {
    "name": "Veritas",
    "address": "6, Carrer de Dameto, Palma",
    "area": "Palma",
    "category": "supermarkets",
    "rating": 0,
    "verified": false,
    "location": {
      "lat": 39.571261,
      "lng": 2.637389
    },
    "phone": "+34 971 863511",
    "website": "https://www.veritas.es/",
    "hours": {
      "open": "Mo-Sa 09:15-21:15",
      "close": ""
    }
  },
  {
    "name": "Malibú",
    "address": "Mallorca",
    "area": "Calvià",
    "category": "supermarkets",
    "rating": 0,
    "verified": false,
    "location": {
      "lat": 39.511504,
      "lng": 2.539575
    }
  },
  {
    "name": "Eurospar",
    "address": "Mallorca",
    "area": "Palma",
    "category": "supermarkets",
    "rating": 0,
    "verified": false,
    "location": {
      "lat": 39.519006,
      "lng": 2.742041
    }
  },
  {
    "name": "Veritas",
    "address": "6",
    "area": "Palma",
    "category": "supermarkets",
    "rating": 0,
    "verified": false,
    "location": {
      "lat": 39.573744,
      "lng": 2.65455
    },
    "phone": "+34 971 213501",
    "website": "https://www.veritas.es/tienda/palma-de-mallorca/",
    "hours": {
      "open": "Mo-Sa 09:15-21:15",
      "close": ""
    }
  },
  {
    "name": "Spar",
    "address": "30, mila, s'Arenal",
    "area": "Llucmajor",
    "category": "supermarkets",
    "rating": 0,
    "verified": false,
    "location": {
      "lat": 39.504241,
      "lng": 2.75354
    },
    "phone": "+34 971 44 37 17",
    "hours": {
      "open": "09:30-21:30",
      "close": ""
    }
  },
  {
    "name": "Frutas Garrofe",
    "address": "280, Carretera Militar, s'Arenal",
    "area": "Llucmajor",
    "category": "supermarkets",
    "rating": 0,
    "verified": false,
    "location": {
      "lat": 39.504375,
      "lng": 2.754091
    },
    "phone": "+34 971 74 55 04",
    "hours": {
      "open": "08:30-20:00",
      "close": ""
    }
  },
  {
    "name": "Supermercado Aragón",
    "address": "234, Carrer d'Aragó, Palma",
    "area": "Palma",
    "category": "supermarkets",
    "rating": 0,
    "verified": false,
    "location": {
      "lat": 39.58927,
      "lng": 2.677586
    },
    "phone": "+34985695632",
    "hours": {
      "open": "Mo-Su 09:00-21:00",
      "close": ""
    }
  },
  {
    "name": "Coaliment",
    "address": "Mallorca",
    "area": "Calvià",
    "category": "supermarkets",
    "rating": 0,
    "verified": false,
    "location": {
      "lat": 39.535341,
      "lng": 2.571118
    }
  },
  {
    "name": "Mari Loli",
    "address": "Mallorca",
    "area": "Palma",
    "category": "supermarkets",
    "rating": 0,
    "verified": false,
    "location": {
      "lat": 39.523415,
      "lng": 2.739896
    }
  },
  {
    "name": "Eroski City",
    "address": "16, Carrer de Nuredduna",
    "area": "Palma",
    "category": "supermarkets",
    "rating": 0,
    "verified": false,
    "location": {
      "lat": 39.572896,
      "lng": 2.659405
    }
  },
  {
    "name": "Spar",
    "address": "14, carrer de la Caravel·la",
    "area": "Palma",
    "category": "supermarkets",
    "rating": 0,
    "verified": false,
    "location": {
      "lat": 39.533165,
      "lng": 2.725075
    }
  },
  {
    "name": "Eroski City",
    "address": "Mallorca",
    "area": "Palma",
    "category": "supermarkets",
    "rating": 0,
    "verified": false,
    "location": {
      "lat": 39.587081,
      "lng": 2.684099
    }
  },
  {
    "name": "Compra saludable",
    "address": "Mallorca",
    "area": "Andratx",
    "category": "supermarkets",
    "rating": 0,
    "verified": false,
    "location": {
      "lat": 39.53909,
      "lng": 2.420366
    }
  },
  {
    "name": "Lidl",
    "address": "Mallorca",
    "area": "Calvià",
    "category": "supermarkets",
    "rating": 0,
    "verified": false,
    "location": {
      "lat": 39.511103,
      "lng": 2.520574
    },
    "hours": {
      "open": "Mo-Su,PH 09:00-22:00",
      "close": ""
    }
  },
  {
    "name": "Aldi",
    "address": "137, Carrer de l'Arxiduc Lluís Salvador, Palma",
    "area": "Palma",
    "category": "supermarkets",
    "rating": 0,
    "verified": false,
    "location": {
      "lat": 39.588132,
      "lng": 2.659366
    }
  },
  {
    "name": "Primaprix",
    "address": "Mallorca",
    "area": "Palma",
    "category": "supermarkets",
    "rating": 0,
    "verified": false,
    "location": {
      "lat": 39.572046,
      "lng": 2.655057
    }
  },
  {
    "name": "BIP",
    "address": "Mallorca",
    "area": "Palma",
    "category": "supermarkets",
    "rating": 0,
    "verified": false,
    "location": {
      "lat": 39.502986,
      "lng": 2.751741
    }
  },
  {
    "name": "Deutscher Supermarkt",
    "address": "Mallorca",
    "area": "Palma",
    "category": "supermarkets",
    "rating": 0,
    "verified": false,
    "location": {
      "lat": 39.518879,
      "lng": 2.744123
    }
  },
  {
    "name": "HiperDino Express Leader",
    "address": "Mallorca",
    "area": "Calvià",
    "category": "supermarkets",
    "rating": 0,
    "verified": false,
    "location": {
      "lat": 39.51061,
      "lng": 2.540054
    }
  },
  {
    "name": "Supermarket Steven's",
    "address": "Mallorca",
    "area": "Calvià",
    "category": "supermarkets",
    "rating": 0,
    "verified": false,
    "location": {
      "lat": 39.509981,
      "lng": 2.537597
    }
  },
  {
    "name": "Supermercado MC",
    "address": "Mallorca",
    "area": "Calvià",
    "category": "supermarkets",
    "rating": 0,
    "verified": false,
    "location": {
      "lat": 39.508465,
      "lng": 2.535115
    }
  },
  {
    "name": "Suma",
    "address": "Mallorca",
    "area": "Palma",
    "category": "supermarkets",
    "rating": 0,
    "verified": false,
    "location": {
      "lat": 39.599702,
      "lng": 2.690935
    }
  },
  {
    "name": "Muller",
    "address": "Mallorca",
    "area": "Palma",
    "category": "supermarkets",
    "rating": 0,
    "verified": false,
    "location": {
      "lat": 39.59885,
      "lng": 2.614792
    }
  },
  {
    "name": "Suma",
    "address": "Mallorca",
    "area": "Palma",
    "category": "supermarkets",
    "rating": 0,
    "verified": false,
    "location": {
      "lat": 39.58459,
      "lng": 2.635249
    },
    "hours": {
      "open": "Mo-Su 08:00-22:00",
      "close": ""
    }
  },
  {
    "name": "Aldi",
    "address": "199, Carretera Militar, Playa de Palma",
    "area": "Llucmajor",
    "category": "supermarkets",
    "rating": 0,
    "verified": false,
    "location": {
      "lat": 39.51146,
      "lng": 2.757281
    },
    "hours": {
      "open": "Mo-Sa 09:00-21:30",
      "close": ""
    }
  },
  {
    "name": "La Bodeguita Latina",
    "address": "Avinguda de Joan Miró",
    "area": "Palma",
    "category": "supermarkets",
    "rating": 0,
    "verified": false,
    "location": {
      "lat": 39.565621,
      "lng": 2.626787
    },
    "hours": {
      "open": "Mo-Su 10:00-02:00",
      "close": ""
    }
  },
  {
    "name": "Eroski",
    "address": "Mallorca",
    "area": "Palma",
    "category": "supermarkets",
    "rating": 0,
    "verified": false,
    "location": {
      "lat": 39.584087,
      "lng": 2.66209
    }
  },
  {
    "name": "Mercadona",
    "address": "Mallorca",
    "area": "Palma",
    "category": "supermarkets",
    "rating": 0,
    "verified": false,
    "location": {
      "lat": 39.584196,
      "lng": 2.662556
    }
  },
  {
    "name": "Eroski City",
    "address": "Mallorca",
    "area": "Palma",
    "category": "supermarkets",
    "rating": 0,
    "verified": false,
    "location": {
      "lat": 39.578179,
      "lng": 2.63974
    },
    "hours": {
      "open": "Mo-Sa 09:00-21:00",
      "close": ""
    }
  },
  {
    "name": "Mercadona",
    "address": "Mallorca",
    "area": "Palma",
    "category": "supermarkets",
    "rating": 0,
    "verified": false,
    "location": {
      "lat": 39.576063,
      "lng": 2.640733
    },
    "hours": {
      "open": "Mo-Sa 09:00-21:00",
      "close": ""
    }
  },
  {
    "name": "Mercadona",
    "address": "Mallorca",
    "area": "Andratx",
    "category": "supermarkets",
    "rating": 0,
    "verified": false,
    "location": {
      "lat": 39.538129,
      "lng": 2.4388
    },
    "website": "https://www.mercadona.es"
  },
  {
    "name": "Mercadona",
    "address": "Mallorca",
    "area": "Calvià",
    "category": "supermarkets",
    "rating": 0,
    "verified": false,
    "location": {
      "lat": 39.528817,
      "lng": 2.545147
    },
    "website": "https://www.mercadona.es",
    "hours": {
      "open": "Mo-Sa 09:00-21:30",
      "close": ""
    }
  },
  {
    "name": "Lidl",
    "address": "6, carrer de Còrdova, Palmanova",
    "area": "Calvià",
    "category": "supermarkets",
    "rating": 0,
    "verified": false,
    "location": {
      "lat": 39.530434,
      "lng": 2.540807
    },
    "website": "www.lidl.es",
    "hours": {
      "open": "Mo-Su 09:00-21:30",
      "close": ""
    }
  },
  {
    "name": "Carrefour",
    "address": "Mallorca",
    "area": "Palma",
    "category": "supermarkets",
    "rating": 0,
    "verified": false,
    "location": {
      "lat": 39.582479,
      "lng": 2.632616
    },
    "hours": {
      "open": "Mo-Sa 09:00-22:00",
      "close": ""
    }
  },
  {
    "name": "Agromart",
    "address": "Mallorca",
    "area": "Palma",
    "category": "supermarkets",
    "rating": 0,
    "verified": false,
    "location": {
      "lat": 39.580646,
      "lng": 2.624457
    },
    "hours": {
      "open": "Mo-Sa 08:00-21:00,08:30-14:30",
      "close": ""
    }
  },
  {
    "name": "Eroski",
    "address": "24, Bulevard de Peguera",
    "area": "Andratx",
    "category": "supermarkets",
    "rating": 0,
    "verified": false,
    "location": {
      "lat": 39.537041,
      "lng": 2.444299
    }
  },
  {
    "name": "Mercadona",
    "address": "avinguda d'Amèrica",
    "area": "Palma",
    "category": "supermarkets",
    "rating": 0,
    "verified": false,
    "location": {
      "lat": 39.512068,
      "lng": 2.753836
    },
    "phone": "+34971266118",
    "website": "https://www.mercadona.es",
    "hours": {
      "open": "Mo-Sa 09:00-21:30",
      "close": ""
    }
  },
  {
    "name": "Carrefour",
    "address": "152, Carrer del General Riera, Palma",
    "area": "Palma",
    "category": "supermarkets",
    "rating": 0,
    "verified": false,
    "location": {
      "lat": 39.594202,
      "lng": 2.644686
    },
    "phone": "+34 914 90 89 00"
  },
  {
    "name": "Mercadona",
    "address": "Carrer de Bartomeu Sureda Miserol",
    "area": "Palma",
    "category": "supermarkets",
    "rating": 0,
    "verified": false,
    "location": {
      "lat": 39.589096,
      "lng": 2.622411
    },
    "website": "https://www.mercadona.es"
  },
  {
    "name": "Mercadona",
    "address": "11, carrer de la Maquinària, Palma",
    "area": "Palma",
    "category": "supermarkets",
    "rating": 0,
    "verified": false,
    "location": {
      "lat": 39.592953,
      "lng": 2.634569
    }
  },
  {
    "name": "Eroski",
    "address": "Mallorca",
    "area": "Palma",
    "category": "supermarkets",
    "rating": 0,
    "verified": false,
    "location": {
      "lat": 39.585279,
      "lng": 2.649671
    }
  },
  {
    "name": "Eroski",
    "address": "carrer de la Prosperitat, Sóller",
    "area": "Sóller",
    "category": "supermarkets",
    "rating": 0,
    "verified": false,
    "location": {
      "lat": 39.768901,
      "lng": 2.709854
    }
  },
  {
    "name": "Eroski",
    "address": "Mallorca",
    "area": "Palma",
    "category": "supermarkets",
    "rating": 0,
    "verified": false,
    "location": {
      "lat": 39.540969,
      "lng": 2.582395
    }
  },
  {
    "name": "Lidl",
    "address": "Mallorca",
    "area": "Palma",
    "category": "supermarkets",
    "rating": 0,
    "verified": false,
    "location": {
      "lat": 39.595784,
      "lng": 2.651635
    },
    "hours": {
      "open": "Mo-Sa 09:00-22:00",
      "close": ""
    }
  },
  {
    "name": "Eroski",
    "address": "Mallorca",
    "area": "Palma",
    "category": "supermarkets",
    "rating": 0,
    "verified": false,
    "location": {
      "lat": 39.586999,
      "lng": 2.675144
    }
  },
  {
    "name": "Eroski",
    "address": "Mallorca",
    "area": "Marratxí",
    "category": "supermarkets",
    "rating": 0,
    "verified": false,
    "location": {
      "lat": 39.622196,
      "lng": 2.741918
    }
  },
  {
    "name": "Mercadona",
    "address": "Mallorca",
    "area": "Palma",
    "category": "supermarkets",
    "rating": 0,
    "verified": false,
    "location": {
      "lat": 39.572596,
      "lng": 2.620016
    },
    "website": "https://www.mercadona.es"
  },
  {
    "name": "Eroski",
    "address": "Mallorca",
    "area": "Palma",
    "category": "supermarkets",
    "rating": 0,
    "verified": false,
    "location": {
      "lat": 39.591466,
      "lng": 2.653901
    },
    "hours": {
      "open": "Mo-Sa 09:00-21:30",
      "close": ""
    }
  },
  {
    "name": "Mercadona",
    "address": "Mallorca",
    "area": "Palma",
    "category": "supermarkets",
    "rating": 0,
    "verified": false,
    "location": {
      "lat": 39.591357,
      "lng": 2.654717
    },
    "website": "https://www.mercadona.es"
  },
  {
    "name": "Lidl",
    "address": "Mallorca",
    "area": "Palma",
    "category": "supermarkets",
    "rating": 0,
    "verified": false,
    "location": {
      "lat": 39.566457,
      "lng": 2.680768
    },
    "hours": {
      "open": "Mo-Sa 09:00-21:30",
      "close": ""
    }
  },
  {
    "name": "Eroski",
    "address": "Mallorca",
    "area": "Palma",
    "category": "supermarkets",
    "rating": 0,
    "verified": false,
    "location": {
      "lat": 39.561896,
      "lng": 2.672295
    }
  },
  {
    "name": "Eroski",
    "address": "Mallorca",
    "area": "Calvià",
    "category": "supermarkets",
    "rating": 0,
    "verified": false,
    "location": {
      "lat": 39.519917,
      "lng": 2.531365
    }
  },
  {
    "name": "Mercadona",
    "address": "Mallorca",
    "area": "Palma",
    "category": "supermarkets",
    "rating": 0,
    "verified": false,
    "location": {
      "lat": 39.612921,
      "lng": 2.689379
    },
    "website": "https://www.mercadona.es"
  },
  {
    "name": "Eroski",
    "address": "1, avinguda del Rei Jaume I",
    "area": "Calvià",
    "category": "supermarkets",
    "rating": 0,
    "verified": false,
    "location": {
      "lat": 39.516925,
      "lng": 2.488265
    },
    "phone": "+34971692950",
    "website": "http://www.erosci.es",
    "hours": {
      "open": "Mo-Sa 09:00-22:00; Su 09:00-14:30",
      "close": ""
    }
  },
  {
    "name": "Mercadona",
    "address": "Avinguda de Joan Miró, Palma de Mallorca",
    "area": "Palma",
    "category": "supermarkets",
    "rating": 0,
    "verified": false,
    "location": {
      "lat": 39.567992,
      "lng": 2.627732
    },
    "website": "https://www.mercadona.es"
  },
  {
    "name": "Eroski",
    "address": "Mallorca",
    "area": "Palma",
    "category": "supermarkets",
    "rating": 0,
    "verified": false,
    "location": {
      "lat": 39.492536,
      "lng": 2.742972
    },
    "hours": {
      "open": "Mo-Sa 09:00-21:00; Su 09:00-14:00",
      "close": ""
    }
  },
  {
    "name": "Aldi",
    "address": "Mallorca",
    "area": "Marratxí",
    "category": "supermarkets",
    "rating": 0,
    "verified": false,
    "location": {
      "lat": 39.628741,
      "lng": 2.733849
    }
  },
  {
    "name": "Aldi",
    "address": "Mallorca",
    "area": "Calvià",
    "category": "supermarkets",
    "rating": 0,
    "verified": false,
    "location": {
      "lat": 39.52878,
      "lng": 2.53826
    },
    "hours": {
      "open": "Mo-Su 09:00-22:00",
      "close": ""
    }
  },
  {
    "name": "Aldi",
    "address": "Mallorca",
    "area": "Calvià",
    "category": "supermarkets",
    "rating": 0,
    "verified": false,
    "location": {
      "lat": 39.512105,
      "lng": 2.533177
    }
  },
  {
    "name": "Eroski",
    "address": "Mallorca",
    "area": "Calvià",
    "category": "supermarkets",
    "rating": 0,
    "verified": false,
    "location": {
      "lat": 39.494484,
      "lng": 2.502218
    }
  },
  {
    "name": "Lidl",
    "address": "Mallorca",
    "area": "Palma",
    "category": "supermarkets",
    "rating": 0,
    "verified": false,
    "location": {
      "lat": 39.586879,
      "lng": 2.673116
    },
    "hours": {
      "open": "Mo-Sa 09:00-22:00",
      "close": ""
    }
  },
  {
    "name": "Aldi",
    "address": "203, Carrer d'Aragó",
    "area": "Palma",
    "category": "supermarkets",
    "rating": 0,
    "verified": false,
    "location": {
      "lat": 39.58726,
      "lng": 2.673545
    },
    "hours": {
      "open": "Mo-Sa 09:00-22:00",
      "close": ""
    }
  },
  {
    "name": "Mercadona",
    "address": "Mallorca",
    "area": "Palma",
    "category": "supermarkets",
    "rating": 0,
    "verified": false,
    "location": {
      "lat": 39.53008,
      "lng": 2.737295
    },
    "website": "https://www.mercadona.es"
  },
  {
    "name": "Mercadona",
    "address": "5, Avinguda Prínceps d'Espanya, Marratxí",
    "area": "Marratxí",
    "category": "supermarkets",
    "rating": 0,
    "verified": false,
    "location": {
      "lat": 39.62137,
      "lng": 2.724619
    },
    "hours": {
      "open": "Mo-Sa 09:00-21:30",
      "close": ""
    }
  },
  {
    "name": "Lidl",
    "address": "Mallorca",
    "area": "Palma",
    "category": "supermarkets",
    "rating": 0,
    "verified": false,
    "location": {
      "lat": 39.556117,
      "lng": 2.692473
    },
    "hours": {
      "open": "Su 09:00-15:00",
      "close": ""
    }
  },
  {
    "name": "Eroski",
    "address": "Mallorca",
    "area": "Palma",
    "category": "supermarkets",
    "rating": 0,
    "verified": false,
    "location": {
      "lat": 39.556389,
      "lng": 2.691626
    }
  },
  {
    "name": "Eroski",
    "address": "Mallorca",
    "area": "Andratx",
    "category": "supermarkets",
    "rating": 0,
    "verified": false,
    "location": {
      "lat": 39.570521,
      "lng": 2.421338
    }
  },
  {
    "name": "Eroski",
    "address": "Mallorca",
    "area": "Palma",
    "category": "supermarkets",
    "rating": 0,
    "verified": false,
    "location": {
      "lat": 39.597987,
      "lng": 2.67677
    }
  },
  {
    "name": "Cidón",
    "address": "Mallorca",
    "area": "Calvià",
    "category": "supermarkets",
    "rating": 0,
    "verified": false,
    "location": {
      "lat": 39.534899,
      "lng": 2.572382
    },
    "website": "https://www.supermercadocidon.com/es/",
    "hours": {
      "open": "Mo-Sa 08:30-21:00; Su 09:00-14:00",
      "close": ""
    }
  },
  {
    "name": "Morey Esteva",
    "address": "Mallorca",
    "area": "Marratxí",
    "category": "supermarkets",
    "rating": 0,
    "verified": false,
    "location": {
      "lat": 39.623966,
      "lng": 2.719598
    }
  },
  {
    "name": "A Prop",
    "address": "Mallorca",
    "area": "Marratxí",
    "category": "supermarkets",
    "rating": 0,
    "verified": false,
    "location": {
      "lat": 39.55409,
      "lng": 2.777377
    }
  },
  {
    "name": "Eroski",
    "address": "Mallorca",
    "area": "Llucmajor",
    "category": "supermarkets",
    "rating": 0,
    "verified": false,
    "location": {
      "lat": 39.428072,
      "lng": 2.748672
    }
  },
  {
    "name": "Mercadona",
    "address": "Mallorca",
    "area": "Llucmajor",
    "category": "supermarkets",
    "rating": 0,
    "verified": false,
    "location": {
      "lat": 39.44928,
      "lng": 2.754284
    },
    "website": "https://www.mercadona.es"
  },
  {
    "name": "Eroski",
    "address": "Mallorca",
    "area": "Llucmajor",
    "category": "supermarkets",
    "rating": 0,
    "verified": false,
    "location": {
      "lat": 39.500969,
      "lng": 2.754917
    }
  },
  {
    "name": "Mercadona",
    "address": "Mallorca",
    "area": "Palma",
    "category": "supermarkets",
    "rating": 0,
    "verified": false,
    "location": {
      "lat": 39.581007,
      "lng": 2.633348
    },
    "website": "https://www.mercadona.es"
  },
  {
    "name": "Spar",
    "address": "Mallorca",
    "area": "Calvià",
    "category": "supermarkets",
    "rating": 0,
    "verified": false,
    "location": {
      "lat": 39.507531,
      "lng": 2.531269
    }
  },
  {
    "name": "Spar",
    "address": "Mallorca",
    "area": "Calvià",
    "category": "supermarkets",
    "rating": 0,
    "verified": false,
    "location": {
      "lat": 39.495887,
      "lng": 2.532485
    }
  },
  {
    "name": "Mercadona",
    "address": "33, Camí de Can Pastilla",
    "area": "Palma",
    "category": "supermarkets",
    "rating": 0,
    "verified": false,
    "location": {
      "lat": 39.549142,
      "lng": 2.701272
    },
    "phone": "+34971623583",
    "website": "https://www.mercadona.es",
    "hours": {
      "open": "Mo-Sa 09:00-21:30",
      "close": ""
    }
  },
  {
    "name": "Mercadona",
    "address": "Mallorca",
    "area": "Palma",
    "category": "supermarkets",
    "rating": 0,
    "verified": false,
    "location": {
      "lat": 39.575023,
      "lng": 2.679061
    },
    "website": "https://www.mercadona.es"
  },
  {
    "name": "Spar",
    "address": "Mallorca",
    "area": "Calvià",
    "category": "supermarkets",
    "rating": 0,
    "verified": false,
    "location": {
      "lat": 39.490918,
      "lng": 2.48135
    },
    "hours": {
      "open": "Mo-Sa 08:30-21:00; PH,Su 09:00-13:30",
      "close": ""
    }
  },
  {
    "name": "Lidl",
    "address": "Mallorca",
    "area": "Palma",
    "category": "supermarkets",
    "rating": 0,
    "verified": false,
    "location": {
      "lat": 39.585991,
      "lng": 2.627242
    }
  },
  {
    "name": "Aldi",
    "address": "Mallorca",
    "area": "Palma",
    "category": "supermarkets",
    "rating": 0,
    "verified": false,
    "location": {
      "lat": 39.567231,
      "lng": 2.685216
    },
    "hours": {
      "open": "Mo-Sa 09:00-21:30",
      "close": ""
    }
  },
  {
    "name": "Lidl",
    "address": "Mallorca",
    "area": "Marratxí",
    "category": "supermarkets",
    "rating": 0,
    "verified": false,
    "location": {
      "lat": 39.607755,
      "lng": 2.707786
    },
    "hours": {
      "open": "Mo-Sa 09:00-21:30",
      "close": ""
    }
  },
  {
    "name": "Mercadona",
    "address": "Mallorca",
    "area": "Andratx",
    "category": "supermarkets",
    "rating": 0,
    "verified": false,
    "location": {
      "lat": 39.575542,
      "lng": 2.425691
    },
    "website": "https://www.mercadona.es"
  },
  {
    "name": "Coaliment",
    "address": "Mallorca",
    "area": "Esporles",
    "category": "supermarkets",
    "rating": 0,
    "verified": false,
    "location": {
      "lat": 39.668029,
      "lng": 2.578857
    },
    "hours": {
      "open": "Mo-Sa 08:00-21:15; Su 08:00-20:45",
      "close": ""
    }
  },
  {
    "name": "Spar",
    "address": "Mallorca",
    "area": "Sóller",
    "category": "supermarkets",
    "rating": 0,
    "verified": false,
    "location": {
      "lat": 39.771216,
      "lng": 2.716796
    },
    "hours": {
      "open": "Mo-Sa 09:00-13:30,17:00-20:30",
      "close": ""
    }
  },
  {
    "name": "Lidl",
    "address": "Mallorca",
    "area": "Palma",
    "category": "supermarkets",
    "rating": 0,
    "verified": false,
    "location": {
      "lat": 39.585844,
      "lng": 2.641567
    }
  },
  {
    "name": "HiperCentro",
    "address": "Mallorca",
    "area": "Palma",
    "category": "supermarkets",
    "rating": 0,
    "verified": false,
    "location": {
      "lat": 39.569218,
      "lng": 2.685159
    }
  },
  {
    "name": "Coaliment",
    "address": "Mallorca",
    "area": "Calvià",
    "category": "supermarkets",
    "rating": 0,
    "verified": false,
    "location": {
      "lat": 39.565402,
      "lng": 2.504341
    }
  },
  {
    "name": "Coaliment",
    "address": "Mallorca",
    "area": "Palma",
    "category": "supermarkets",
    "rating": 0,
    "verified": false,
    "location": {
      "lat": 39.59749,
      "lng": 2.707512
    }
  },
  {
    "name": "Lidl",
    "address": "Mallorca",
    "area": "Palma",
    "category": "supermarkets",
    "rating": 0,
    "verified": false,
    "location": {
      "lat": 39.585489,
      "lng": 2.641591
    }
  },
  {
    "name": "Nice Price",
    "address": "Mallorca",
    "area": "Calvià",
    "category": "supermarkets",
    "rating": 0,
    "verified": false,
    "location": {
      "lat": 39.534567,
      "lng": 2.56668
    }
  },
  {
    "name": "Bip Bip",
    "address": "Carrer Pla",
    "area": "Marratxí",
    "category": "supermarkets",
    "rating": 0,
    "verified": false,
    "location": {
      "lat": 39.558787,
      "lng": 2.780991
    },
    "phone": "+34 971742975",
    "hours": {
      "open": "Mo-Su 08:30-20:30",
      "close": ""
    }
  },
  {
    "name": "Lidl",
    "address": "2, Bulevard de Peguera, Peguera",
    "area": "Andratx",
    "category": "supermarkets",
    "rating": 0,
    "verified": false,
    "location": {
      "lat": 39.537016,
      "lng": 2.440126
    },
    "hours": {
      "open": "Mo-Sa 09:00-22:00; Su 09:00-15:00",
      "close": ""
    }
  },
  {
    "name": "Peculiar",
    "address": "Mallorca",
    "area": "Calvià",
    "category": "supermarkets",
    "rating": 0,
    "verified": false,
    "location": {
      "lat": 39.503457,
      "lng": 2.517484
    }
  },
  {
    "name": "Lidl",
    "address": "Mallorca",
    "area": "Palma",
    "category": "supermarkets",
    "rating": 0,
    "verified": false,
    "location": {
      "lat": 39.510073,
      "lng": 2.756711
    },
    "hours": {
      "open": "Mo-Su 09:00-21:30",
      "close": ""
    }
  },
  {
    "name": "Aldi",
    "address": "Mallorca",
    "area": "Palma",
    "category": "supermarkets",
    "rating": 0,
    "verified": false,
    "location": {
      "lat": 39.585877,
      "lng": 2.642124
    }
  },
  {
    "name": "Supermarket",
    "address": "Mallorca",
    "area": "Palma",
    "category": "supermarkets",
    "rating": 0,
    "verified": false,
    "location": {
      "lat": 39.585773,
      "lng": 2.642179
    }
  },
  {
    "name": "Bip bip",
    "address": "Mallorca",
    "area": "Andratx",
    "category": "supermarkets",
    "rating": 0,
    "verified": false,
    "location": {
      "lat": 39.543898,
      "lng": 2.390392
    }
  },
  {
    "name": "Supermarket",
    "address": "Mallorca",
    "area": "Palma",
    "category": "supermarkets",
    "rating": 0,
    "verified": false,
    "location": {
      "lat": 39.516543,
      "lng": 2.74623
    }
  },
  {
    "name": "Eroski City",
    "address": "Mallorca",
    "area": "Palma",
    "category": "supermarkets",
    "rating": 0,
    "verified": false,
    "location": {
      "lat": 39.503516,
      "lng": 2.753088
    }
  },
  {
    "name": "Mercadona",
    "address": "Mallorca",
    "area": "Palma",
    "category": "supermarkets",
    "rating": 0,
    "verified": false,
    "location": {
      "lat": 39.588134,
      "lng": 2.672643
    }
  },
  {
    "name": "Super Playa",
    "address": "Mallorca",
    "area": "Sant Llorenç des Cardassar",
    "category": "supermarkets",
    "rating": 0,
    "verified": false,
    "location": {
      "lat": 39.522762,
      "lng": 3.311638
    }
  },
  {
    "name": "Spar",
    "address": "Mallorca",
    "area": "Sant Llorenç des Cardassar",
    "category": "supermarkets",
    "rating": 0,
    "verified": false,
    "location": {
      "lat": 39.540998,
      "lng": 3.334258
    }
  },
  {
    "name": "Hey! market",
    "address": "16, Avinguda Primavera, Colònia de Sant Jordi",
    "area": "Campos",
    "category": "supermarkets",
    "rating": 0,
    "verified": false,
    "location": {
      "lat": 39.323018,
      "lng": 2.988273
    },
    "phone": "+34971655116",
    "hours": {
      "open": "Mo-Fr 09:00-21:30; Sa-Su open",
      "close": ""
    }
  },
  {
    "name": "Spar",
    "address": "Mallorca",
    "area": "Son Servera",
    "category": "supermarkets",
    "rating": 0,
    "verified": false,
    "location": {
      "lat": 39.570273,
      "lng": 3.375349
    }
  },
  {
    "name": "Eroski",
    "address": "133, Carrer de Palma, Santanyí",
    "area": "Santanyí",
    "category": "supermarkets",
    "rating": 0,
    "verified": false,
    "location": {
      "lat": 39.358662,
      "lng": 3.124488
    },
    "phone": "+34 971 64 21 60",
    "hours": {
      "open": "Mo-Sa 09:00-21:30; Su 09:00-21:00",
      "close": ""
    }
  },
  {
    "name": "Spar",
    "address": "Mallorca",
    "area": "Santanyí",
    "category": "supermarkets",
    "rating": 0,
    "verified": false,
    "location": {
      "lat": 39.330064,
      "lng": 3.145326
    },
    "hours": {
      "open": "Mo-Fr 08:00-20:30; Sa 08:00-20:00; Su 08:00-19:00",
      "close": ""
    }
  },
  {
    "name": "Schlecker",
    "address": "Mallorca",
    "area": "Felanitx",
    "category": "supermarkets",
    "rating": 0,
    "verified": false,
    "location": {
      "lat": 39.467597,
      "lng": 3.14505
    }
  },
  {
    "name": "Spar",
    "address": "Mallorca",
    "area": "Ses Salines",
    "category": "supermarkets",
    "rating": 0,
    "verified": false,
    "location": {
      "lat": 39.363913,
      "lng": 2.941491
    }
  },
  {
    "name": "Aprop",
    "address": "Mallorca",
    "area": "Sant Joan",
    "category": "supermarkets",
    "rating": 0,
    "verified": false,
    "location": {
      "lat": 39.597152,
      "lng": 3.044243
    }
  },
  {
    "name": "Proxim",
    "address": "Mallorca",
    "area": "Sant Joan",
    "category": "supermarkets",
    "rating": 0,
    "verified": false,
    "location": {
      "lat": 39.596449,
      "lng": 3.041239
    }
  },
  {
    "name": "Supermarket",
    "address": "Mallorca",
    "area": "Manacor",
    "category": "supermarkets",
    "rating": 0,
    "verified": false,
    "location": {
      "lat": 39.513352,
      "lng": 3.217059
    }
  },
  {
    "name": "aprop",
    "address": "Mallorca",
    "area": "Santanyí",
    "category": "supermarkets",
    "rating": 0,
    "verified": false,
    "location": {
      "lat": 39.328181,
      "lng": 3.171414
    },
    "hours": {
      "open": "Mo-Sa 08:00-20:00; Su 08:00-13:00",
      "close": ""
    }
  },
  {
    "name": "Spar",
    "address": "Mallorca",
    "area": "Santanyí",
    "category": "supermarkets",
    "rating": 0,
    "verified": false,
    "location": {
      "lat": 39.329214,
      "lng": 3.170556
    },
    "hours": {
      "open": "Mo-Fr 08:15-20:00; Sa,Su 08:15-14:00",
      "close": ""
    }
  },
  {
    "name": "Spar",
    "address": "Mallorca",
    "area": "Santanyí",
    "category": "supermarkets",
    "rating": 0,
    "verified": false,
    "location": {
      "lat": 39.377394,
      "lng": 3.237485
    }
  },
  {
    "name": "Spar",
    "address": "Mallorca",
    "area": "Santanyí",
    "category": "supermarkets",
    "rating": 0,
    "verified": false,
    "location": {
      "lat": 39.363949,
      "lng": 3.225796
    }
  },
  {
    "name": "Eurospar",
    "address": "Mallorca",
    "area": "Santanyí",
    "category": "supermarkets",
    "rating": 0,
    "verified": false,
    "location": {
      "lat": 39.364303,
      "lng": 3.226387
    }
  },
  {
    "name": "Eroski",
    "address": "Mallorca",
    "area": "Campos",
    "category": "supermarkets",
    "rating": 0,
    "verified": false,
    "location": {
      "lat": 39.437763,
      "lng": 3.00368
    },
    "hours": {
      "open": "Mo-Sa 09:00-22:00; Su 09:00-21:00",
      "close": ""
    }
  },
  {
    "name": "Eroski",
    "address": "Mallorca",
    "area": "Felanitx",
    "category": "supermarkets",
    "rating": 0,
    "verified": false,
    "location": {
      "lat": 39.418046,
      "lng": 3.2568
    }
  },
  {
    "name": "Hiper Centro Portocolom",
    "address": "Mallorca",
    "area": "Felanitx",
    "category": "supermarkets",
    "rating": 0,
    "verified": false,
    "location": {
      "lat": 39.418593,
      "lng": 3.257638
    }
  },
  {
    "name": "MariCarmen",
    "address": "Mallorca",
    "area": "Felanitx",
    "category": "supermarkets",
    "rating": 0,
    "verified": false,
    "location": {
      "lat": 39.421033,
      "lng": 3.261546
    },
    "hours": {
      "open": "Mo-Sa 08:00-20:30",
      "close": ""
    }
  },
  {
    "name": "Suma",
    "address": "Mallorca",
    "area": "Campos",
    "category": "supermarkets",
    "rating": 0,
    "verified": false,
    "location": {
      "lat": 39.426981,
      "lng": 3.022778
    }
  },
  {
    "name": "Es Port",
    "address": "Mallorca",
    "area": "Sant Llorenç des Cardassar",
    "category": "supermarkets",
    "rating": 0,
    "verified": false,
    "location": {
      "lat": 39.54103,
      "lng": 3.334332
    }
  },
  {
    "name": "Mercadona",
    "address": "Mallorca",
    "area": "Manacor",
    "category": "supermarkets",
    "rating": 0,
    "verified": false,
    "location": {
      "lat": 39.566396,
      "lng": 3.212024
    },
    "website": "https://www.mercadona.es",
    "hours": {
      "open": "Mo-Sa 09:00-21:30",
      "close": ""
    }
  },
  {
    "name": "Spar",
    "address": "Mallorca",
    "area": "Son Servera",
    "category": "supermarkets",
    "rating": 0,
    "verified": false,
    "location": {
      "lat": 39.597397,
      "lng": 3.382759
    }
  },
  {
    "name": "Spar",
    "address": "Mallorca",
    "area": "Son Servera",
    "category": "supermarkets",
    "rating": 0,
    "verified": false,
    "location": {
      "lat": 39.59832,
      "lng": 3.382909
    }
  },
  {
    "name": "Supermarket",
    "address": "Mallorca",
    "area": "Llucmajor",
    "category": "supermarkets",
    "rating": 0,
    "verified": false,
    "location": {
      "lat": 39.363073,
      "lng": 2.836526
    }
  },
  {
    "name": "sa Cala",
    "address": "Mallorca",
    "area": "Llucmajor",
    "category": "supermarkets",
    "rating": 0,
    "verified": false,
    "location": {
      "lat": 39.363371,
      "lng": 2.837113
    }
  },
  {
    "name": "Mercadona",
    "address": "Mallorca",
    "area": "Manacor",
    "category": "supermarkets",
    "rating": 0,
    "verified": false,
    "location": {
      "lat": 39.571142,
      "lng": 3.202439
    },
    "website": "https://www.mercadona.es"
  },
  {
    "name": "Spar Can Damià",
    "address": "Mallorca",
    "area": "Santanyí",
    "category": "supermarkets",
    "rating": 0,
    "verified": false,
    "location": {
      "lat": 39.387273,
      "lng": 3.166572
    }
  },
  {
    "name": "sa Botigueta",
    "address": "Mallorca",
    "area": "Campos",
    "category": "supermarkets",
    "rating": 0,
    "verified": false,
    "location": {
      "lat": 39.36126,
      "lng": 2.917477
    }
  },
  {
    "name": "Spar",
    "address": "Mallorca",
    "area": "Santanyí",
    "category": "supermarkets",
    "rating": 0,
    "verified": false,
    "location": {
      "lat": 39.369475,
      "lng": 3.222993
    }
  },
  {
    "name": "Spar",
    "address": "Mallorca",
    "area": "Son Servera",
    "category": "supermarkets",
    "rating": 0,
    "verified": false,
    "location": {
      "lat": 39.59912,
      "lng": 3.384579
    }
  },
  {
    "name": "Eurocop",
    "address": "Mallorca",
    "area": "Ses Salines",
    "category": "supermarkets",
    "rating": 0,
    "verified": false,
    "location": {
      "lat": 39.361419,
      "lng": 2.950689
    }
  },
  {
    "name": "Suma",
    "address": "Mallorca",
    "area": "Santanyí",
    "category": "supermarkets",
    "rating": 0,
    "verified": false,
    "location": {
      "lat": 39.378711,
      "lng": 3.23308
    }
  },
  {
    "name": "Spar",
    "address": "Mallorca",
    "area": "Santanyí",
    "category": "supermarkets",
    "rating": 0,
    "verified": false,
    "location": {
      "lat": 39.378433,
      "lng": 3.236936
    }
  },
  {
    "name": "Supermarket",
    "address": "Mallorca",
    "area": "Felanitx",
    "category": "supermarkets",
    "rating": 0,
    "verified": false,
    "location": {
      "lat": 39.47197,
      "lng": 3.144982
    }
  },
  {
    "name": "Spar",
    "address": "Mallorca",
    "area": "Son Servera",
    "category": "supermarkets",
    "rating": 0,
    "verified": false,
    "location": {
      "lat": 39.56902,
      "lng": 3.373443
    }
  },
  {
    "name": "Mega store",
    "address": "Mallorca",
    "area": "Felanitx",
    "category": "supermarkets",
    "rating": 0,
    "verified": false,
    "location": {
      "lat": 39.462816,
      "lng": 3.278757
    }
  },
  {
    "name": "Eroski City",
    "address": "Mallorca",
    "area": "Ses Salines",
    "category": "supermarkets",
    "rating": 0,
    "verified": false,
    "location": {
      "lat": 39.315937,
      "lng": 2.994733
    },
    "hours": {
      "open": "Mo-Sa 08:30-20:30; Su 08:30-13:30",
      "close": ""
    }
  },
  {
    "name": "Spar",
    "address": "Mallorca",
    "area": "Son Servera",
    "category": "supermarkets",
    "rating": 0,
    "verified": false,
    "location": {
      "lat": 39.570302,
      "lng": 3.375063
    }
  },
  {
    "name": "Superspar",
    "address": "Mallorca",
    "area": "Son Servera",
    "category": "supermarkets",
    "rating": 0,
    "verified": false,
    "location": {
      "lat": 39.572694,
      "lng": 3.373643
    }
  },
  {
    "name": "Aprop",
    "address": "Mallorca",
    "area": "Son Servera",
    "category": "supermarkets",
    "rating": 0,
    "verified": false,
    "location": {
      "lat": 39.564654,
      "lng": 3.372535
    }
  },
  {
    "name": "il Mercato - Co Alimenta",
    "address": "Mallorca",
    "area": "Manacor",
    "category": "supermarkets",
    "rating": 0,
    "verified": false,
    "location": {
      "lat": 39.567938,
      "lng": 3.219917
    },
    "hours": {
      "open": "Mo-Fr 08:30-20:00; Sa,Su 08:00-15:00; PH off",
      "close": ""
    }
  },
  {
    "name": "Spar",
    "address": "Mallorca",
    "area": "Santanyí",
    "category": "supermarkets",
    "rating": 0,
    "verified": false,
    "location": {
      "lat": 39.373723,
      "lng": 3.230091
    }
  },
  {
    "name": "Supermarket",
    "address": "Mallorca",
    "area": "Santanyí",
    "category": "supermarkets",
    "rating": 0,
    "verified": false,
    "location": {
      "lat": 39.375084,
      "lng": 3.22993
    }
  },
  {
    "name": "Spar",
    "address": "Mallorca",
    "area": "Santanyí",
    "category": "supermarkets",
    "rating": 0,
    "verified": false,
    "location": {
      "lat": 39.375588,
      "lng": 3.229101
    }
  },
  {
    "name": "Spar",
    "address": "Mallorca",
    "area": "Santanyí",
    "category": "supermarkets",
    "rating": 0,
    "verified": false,
    "location": {
      "lat": 39.375439,
      "lng": 3.232516
    }
  },
  {
    "name": "Spar",
    "address": "Mallorca",
    "area": "Santanyí",
    "category": "supermarkets",
    "rating": 0,
    "verified": false,
    "location": {
      "lat": 39.376203,
      "lng": 3.232512
    }
  },
  {
    "name": "Lidl",
    "address": "Santanyí",
    "area": "Santanyí",
    "category": "supermarkets",
    "rating": 0,
    "verified": false,
    "location": {
      "lat": 39.362068,
      "lng": 3.121631
    },
    "hours": {
      "open": "Mo-Sa 09:00-22:00; Su 09:00-15:00",
      "close": ""
    }
  },
  {
    "name": "Spar",
    "address": "Mallorca",
    "area": "Llucmajor",
    "category": "supermarkets",
    "rating": 0,
    "verified": false,
    "location": {
      "lat": 39.490329,
      "lng": 2.891274
    },
    "hours": {
      "open": "Mo-Sa 09:00-13:30,17:00-20:30; Su 09:00-13:00",
      "close": ""
    }
  },
  {
    "name": "Mayka",
    "address": "Mallorca",
    "area": "Son Servera",
    "category": "supermarkets",
    "rating": 0,
    "verified": false,
    "location": {
      "lat": 39.580322,
      "lng": 3.37728
    }
  },
  {
    "name": "Hiper Centro",
    "address": "Mallorca",
    "area": "Manacor",
    "category": "supermarkets",
    "rating": 0,
    "verified": false,
    "location": {
      "lat": 39.56982,
      "lng": 3.210978
    }
  },
  {
    "name": "Eurocop Sa Botigueta",
    "address": "Mallorca",
    "area": "Ses Salines",
    "category": "supermarkets",
    "rating": 0,
    "verified": false,
    "location": {
      "lat": 39.363765,
      "lng": 2.944411
    }
  },
  {
    "name": "Spar",
    "address": "Mallorca",
    "area": "Sant Llorenç des Cardassar",
    "category": "supermarkets",
    "rating": 0,
    "verified": false,
    "location": {
      "lat": 39.522654,
      "lng": 3.311852
    }
  },
  {
    "name": "Spar",
    "address": "Mallorca",
    "area": "Ses Salines",
    "category": "supermarkets",
    "rating": 0,
    "verified": false,
    "location": {
      "lat": 39.363363,
      "lng": 2.943574
    }
  },
  {
    "name": "Spar",
    "address": "Mallorca",
    "area": "Son Servera",
    "category": "supermarkets",
    "rating": 0,
    "verified": false,
    "location": {
      "lat": 39.588227,
      "lng": 3.383084
    }
  },
  {
    "name": "Ca na Conxa",
    "address": "Mallorca",
    "area": "Felanitx",
    "category": "supermarkets",
    "rating": 0,
    "verified": false,
    "location": {
      "lat": 39.47545,
      "lng": 3.143775
    }
  },
  {
    "name": "Rius",
    "address": "Mallorca",
    "area": "Son Servera",
    "category": "supermarkets",
    "rating": 0,
    "verified": false,
    "location": {
      "lat": 39.564907,
      "lng": 3.371673
    },
    "hours": {
      "open": "Mo-Su 08:00-00:00",
      "close": ""
    }
  },
  {
    "name": "Spar",
    "address": "Mallorca",
    "area": "Santanyí",
    "category": "supermarkets",
    "rating": 0,
    "verified": false,
    "location": {
      "lat": 39.382061,
      "lng": 3.237892
    }
  },
  {
    "name": "Bazaar",
    "address": "Mallorca",
    "area": "Sant Llorenç des Cardassar",
    "category": "supermarkets",
    "rating": 0,
    "verified": false,
    "location": {
      "lat": 39.518758,
      "lng": 3.313663
    }
  },
  {
    "name": "Distribuciones Josmer",
    "address": "Mallorca",
    "area": "Llucmajor",
    "category": "supermarkets",
    "rating": 0,
    "verified": false,
    "location": {
      "lat": 39.48578,
      "lng": 2.853321
    },
    "phone": "+34 971 45 03 10",
    "website": "https://www.distribucionesjosmer.com"
  },
  {
    "name": "Marisol",
    "address": "Mallorca",
    "area": "Sant Llorenç des Cardassar",
    "category": "supermarkets",
    "rating": 0,
    "verified": false,
    "location": {
      "lat": 39.545363,
      "lng": 3.335333
    }
  },
  {
    "name": "Can Colau",
    "address": "10, Carrer de la Unió, Algaida",
    "area": "Algaida",
    "category": "supermarkets",
    "rating": 0,
    "verified": false,
    "location": {
      "lat": 39.559012,
      "lng": 2.892915
    }
  },
  {
    "name": "Fruites i Verdures Algaida",
    "address": "Mallorca",
    "area": "Algaida",
    "category": "supermarkets",
    "rating": 0,
    "verified": false,
    "location": {
      "lat": 39.559175,
      "lng": 2.897418
    }
  },
  {
    "name": "Spar",
    "address": "Mallorca",
    "area": "Santanyí",
    "category": "supermarkets",
    "rating": 0,
    "verified": false,
    "location": {
      "lat": 39.362448,
      "lng": 3.210491
    }
  },
  {
    "name": "Spar",
    "address": "Mallorca",
    "area": "Son Servera",
    "category": "supermarkets",
    "rating": 0,
    "verified": false,
    "location": {
      "lat": 39.576706,
      "lng": 3.375179
    }
  },
  {
    "name": "Verde",
    "address": "Mallorca",
    "area": "Manacor",
    "category": "supermarkets",
    "rating": 0,
    "verified": false,
    "location": {
      "lat": 39.567094,
      "lng": 3.216929
    }
  },
  {
    "name": "Hiper centro",
    "address": "Mallorca",
    "area": "Manacor",
    "category": "supermarkets",
    "rating": 0,
    "verified": false,
    "location": {
      "lat": 39.562242,
      "lng": 3.20958
    }
  },
  {
    "name": "Shoppingcenter",
    "address": "Mallorca",
    "area": "Son Servera",
    "category": "supermarkets",
    "rating": 0,
    "verified": false,
    "location": {
      "lat": 39.591824,
      "lng": 3.383389
    }
  },
  {
    "name": "Spar",
    "address": "Mallorca",
    "area": "Son Servera",
    "category": "supermarkets",
    "rating": 0,
    "verified": false,
    "location": {
      "lat": 39.593556,
      "lng": 3.382615
    }
  },
  {
    "name": "Spar",
    "address": "20, Carrer del Parc de la Mar",
    "area": "Santanyí",
    "category": "supermarkets",
    "rating": 0,
    "verified": false,
    "location": {
      "lat": 39.362638,
      "lng": 3.228435
    }
  },
  {
    "name": "Sa Coma Platja",
    "address": "Mallorca",
    "area": "Son Servera",
    "category": "supermarkets",
    "rating": 0,
    "verified": false,
    "location": {
      "lat": 39.576569,
      "lng": 3.377093
    }
  },
  {
    "name": "Supermarket",
    "address": "Mallorca",
    "area": "Son Servera",
    "category": "supermarkets",
    "rating": 0,
    "verified": false,
    "location": {
      "lat": 39.56774,
      "lng": 3.373147
    }
  },
  {
    "name": "Starmarket",
    "address": "Mallorca",
    "area": "Santanyí",
    "category": "supermarkets",
    "rating": 0,
    "verified": false,
    "location": {
      "lat": 39.352947,
      "lng": 3.199565
    },
    "hours": {
      "open": "May-Oct: Mo-Su 09:00-21:00",
      "close": ""
    }
  },
  {
    "name": "Spar",
    "address": "Mallorca",
    "area": "Santanyí",
    "category": "supermarkets",
    "rating": 0,
    "verified": false,
    "location": {
      "lat": 39.380127,
      "lng": 3.236552
    }
  },
  {
    "name": "BIP BIP",
    "address": "Mallorca",
    "area": "Porreres",
    "category": "supermarkets",
    "rating": 0,
    "verified": false,
    "location": {
      "lat": 39.514552,
      "lng": 3.019547
    }
  },
  {
    "name": "Spar",
    "address": "Mallorca",
    "area": "Felanitx",
    "category": "supermarkets",
    "rating": 0,
    "verified": false,
    "location": {
      "lat": 39.412865,
      "lng": 3.260676
    },
    "hours": {
      "open": "Mo,We-Sa 07:30-20:00; Su 07:30-14:00",
      "close": ""
    }
  },
  {
    "name": "MiniLluc",
    "address": "1, Ronda de Ponent, Llucmajor",
    "area": "Llucmajor",
    "category": "supermarkets",
    "rating": 0,
    "verified": false,
    "location": {
      "lat": 39.49503,
      "lng": 2.88708
    }
  },
  {
    "name": "Coaliment",
    "address": "Mallorca",
    "area": "Felanitx",
    "category": "supermarkets",
    "rating": 0,
    "verified": false,
    "location": {
      "lat": 39.460504,
      "lng": 3.279319
    }
  },
  {
    "name": "Spar",
    "address": "Mallorca",
    "area": "Son Servera",
    "category": "supermarkets",
    "rating": 0,
    "verified": false,
    "location": {
      "lat": 39.597201,
      "lng": 3.383877
    }
  },
  {
    "name": "Spar",
    "address": "Mallorca",
    "area": "Son Servera",
    "category": "supermarkets",
    "rating": 0,
    "verified": false,
    "location": {
      "lat": 39.598296,
      "lng": 3.382811
    }
  },
  {
    "name": "Spar",
    "address": "Mallorca",
    "area": "Son Servera",
    "category": "supermarkets",
    "rating": 0,
    "verified": false,
    "location": {
      "lat": 39.59162,
      "lng": 3.383345
    }
  },
  {
    "name": "Spar",
    "address": "Mallorca",
    "area": "Son Servera",
    "category": "supermarkets",
    "rating": 0,
    "verified": false,
    "location": {
      "lat": 39.597178,
      "lng": 3.384295
    }
  },
  {
    "name": "Spar",
    "address": "Mallorca",
    "area": "Son Servera",
    "category": "supermarkets",
    "rating": 0,
    "verified": false,
    "location": {
      "lat": 39.598687,
      "lng": 3.384325
    }
  },
  {
    "name": "Supermarket",
    "address": "Mallorca",
    "area": "Son Servera",
    "category": "supermarkets",
    "rating": 0,
    "verified": false,
    "location": {
      "lat": 39.597355,
      "lng": 3.38433
    }
  },
  {
    "name": "Supermarket",
    "address": "Mallorca",
    "area": "Son Servera",
    "category": "supermarkets",
    "rating": 0,
    "verified": false,
    "location": {
      "lat": 39.599502,
      "lng": 3.384689
    }
  },
  {
    "name": "Bazar Low Cost",
    "address": "Mallorca",
    "area": "Son Servera",
    "category": "supermarkets",
    "rating": 0,
    "verified": false,
    "location": {
      "lat": 39.570459,
      "lng": 3.374723
    }
  },
  {
    "name": "Spar",
    "address": "Mallorca",
    "area": "Son Servera",
    "category": "supermarkets",
    "rating": 0,
    "verified": false,
    "location": {
      "lat": 39.578346,
      "lng": 3.376111
    }
  },
  {
    "name": "Supermarket",
    "address": "Mallorca",
    "area": "Son Servera",
    "category": "supermarkets",
    "rating": 0,
    "verified": false,
    "location": {
      "lat": 39.578964,
      "lng": 3.376562
    }
  },
  {
    "name": "Es Rebost",
    "address": "Mallorca",
    "area": "Algaida",
    "category": "supermarkets",
    "rating": 0,
    "verified": false,
    "location": {
      "lat": 39.562501,
      "lng": 2.895331
    }
  },
  {
    "name": "Spar",
    "address": "Mallorca",
    "area": "Son Servera",
    "category": "supermarkets",
    "rating": 0,
    "verified": false,
    "location": {
      "lat": 39.576395,
      "lng": 3.375673
    }
  },
  {
    "name": "Supermarket",
    "address": "Mallorca",
    "area": "Felanitx",
    "category": "supermarkets",
    "rating": 0,
    "verified": false,
    "location": {
      "lat": 39.465474,
      "lng": 3.279467
    }
  },
  {
    "name": "Aprop supermercats",
    "address": "Mallorca",
    "area": "Porreres",
    "category": "supermarkets",
    "rating": 0,
    "verified": false,
    "location": {
      "lat": 39.512078,
      "lng": 3.026869
    }
  },
  {
    "name": "Botiga Ca na Marga",
    "address": "38, carrer d'en Cifre, Felanitx",
    "area": "Felanitx",
    "category": "supermarkets",
    "rating": 0,
    "verified": false,
    "location": {
      "lat": 39.465306,
      "lng": 3.1456
    },
    "phone": "+34971159319"
  },
  {
    "name": "Minimarkt Comida Para Llevar",
    "address": "Mallorca",
    "area": "Ses Salines",
    "category": "supermarkets",
    "rating": 0,
    "verified": false,
    "location": {
      "lat": 39.363171,
      "lng": 2.944691
    }
  },
  {
    "name": "Veritas",
    "address": "Ma-19, 07630 Campos, Balearic Islands",
    "area": "Campos",
    "category": "supermarkets",
    "rating": 0,
    "verified": false,
    "location": {
      "lat": 39.437566,
      "lng": 3.01167
    },
    "phone": "+34 971 25 34 25",
    "website": "https://veritas.es/tienda/veritas-campos/",
    "hours": {
      "open": "Mo-Su 09:00-21:15",
      "close": ""
    }
  },
  {
    "name": "Hiper Centro",
    "address": "23, carrer de Consolació, Santanyí",
    "area": "Santanyí",
    "category": "supermarkets",
    "rating": 0,
    "verified": false,
    "location": {
      "lat": 39.359192,
      "lng": 3.13367
    },
    "website": "https://www.hipercentro.com"
  },
  {
    "name": "Suma",
    "address": "2, Carrer Manuel de Falla, Santanyí",
    "area": "Santanyí",
    "category": "supermarkets",
    "rating": 0,
    "verified": false,
    "location": {
      "lat": 39.35404,
      "lng": 3.126467
    },
    "phone": "+34971653415",
    "website": "https://www.sumasupermercados.es"
  },
  {
    "name": "Eroski",
    "address": "Llucmajor",
    "area": "Llucmajor",
    "category": "supermarkets",
    "rating": 0,
    "verified": false,
    "location": {
      "lat": 39.486489,
      "lng": 2.89499
    }
  },
  {
    "name": "Eroski",
    "address": "Mallorca",
    "area": "Sant Llorenç des Cardassar",
    "category": "supermarkets",
    "rating": 0,
    "verified": false,
    "location": {
      "lat": 39.546079,
      "lng": 3.331812
    },
    "hours": {
      "open": "Mo-Su 09:00-21:30",
      "close": ""
    }
  },
  {
    "name": "Hiper centro",
    "address": "Mallorca",
    "area": "Manacor",
    "category": "supermarkets",
    "rating": 0,
    "verified": false,
    "location": {
      "lat": 39.573213,
      "lng": 3.193229
    },
    "hours": {
      "open": "Mo-Sa 08:30-21:00; Su 08:30-14:00",
      "close": ""
    }
  },
  {
    "name": "Lidl",
    "address": "Mallorca",
    "area": "Manacor",
    "category": "supermarkets",
    "rating": 0,
    "verified": false,
    "location": {
      "lat": 39.578453,
      "lng": 3.21072
    }
  },
  {
    "name": "Eroski",
    "address": "Mallorca",
    "area": "Manacor",
    "category": "supermarkets",
    "rating": 0,
    "verified": false,
    "location": {
      "lat": 39.573925,
      "lng": 3.2198
    }
  },
  {
    "name": "Miquel Supermercat",
    "address": "Mallorca",
    "area": "Ses Salines",
    "category": "supermarkets",
    "rating": 0,
    "verified": false,
    "location": {
      "lat": 39.31904,
      "lng": 2.993089
    },
    "hours": {
      "open": "Nov-Apr: Mo-Sa 08:30-13:30,16:30-20:00; May,Oct: Mo-Sa 08:30-20:30; Jun-Sep: Mo-Sa 08:30-21:00; Jun-Sep: Su 08:30-14:00; May,Oct: Su 08:30-14:00",
      "close": ""
    }
  },
  {
    "name": "Eroski",
    "address": "Mallorca",
    "area": "Felanitx",
    "category": "supermarkets",
    "rating": 0,
    "verified": false,
    "location": {
      "lat": 39.473534,
      "lng": 3.156377
    }
  },
  {
    "name": "Eroski",
    "address": "Avinguda dels Benvinguts, Cala d'Or",
    "area": "Santanyí",
    "category": "supermarkets",
    "rating": 0,
    "verified": false,
    "location": {
      "lat": 39.378688,
      "lng": 3.22588
    },
    "hours": {
      "open": "Mo-Fr 09:00-22:00; Sa-Su 09:00-21:00",
      "close": ""
    }
  },
  {
    "name": "Eroski",
    "address": "Passatge de sa Rota",
    "area": "Sant Llorenç des Cardassar",
    "category": "supermarkets",
    "rating": 0,
    "verified": false,
    "location": {
      "lat": 39.546461,
      "lng": 3.33882
    },
    "hours": {
      "open": "Mo-Fr 08:30-20:00; Tu-Su 08:00-15:00; Sa 08:00-12:00",
      "close": ""
    }
  },
  {
    "name": "Hiper Centro",
    "address": "Mallorca",
    "area": "Sant Llorenç des Cardassar",
    "category": "supermarkets",
    "rating": 0,
    "verified": false,
    "location": {
      "lat": 39.543876,
      "lng": 3.331662
    }
  },
  {
    "name": "Spar",
    "address": "Mallorca",
    "area": "Vilafranca de Bonany",
    "category": "supermarkets",
    "rating": 0,
    "verified": false,
    "location": {
      "lat": 39.569767,
      "lng": 3.090314
    }
  },
  {
    "name": "Carrefour",
    "address": "Mallorca",
    "area": "Ses Salines",
    "category": "supermarkets",
    "rating": 0,
    "verified": false,
    "location": {
      "lat": 39.317006,
      "lng": 2.996663
    }
  },
  {
    "name": "Eroski",
    "address": "Carrer Mates, Colònia de Sant Jordi",
    "area": "Campos",
    "category": "supermarkets",
    "rating": 0,
    "verified": false,
    "location": {
      "lat": 39.319462,
      "lng": 2.999067
    },
    "phone": "+34 971 16 60 81",
    "hours": {
      "open": "Mo-Sa 08:30-21:00; Su 09:00-21:00",
      "close": ""
    }
  },
  {
    "name": "Spar",
    "address": "Mallorca",
    "area": "Santanyí",
    "category": "supermarkets",
    "rating": 0,
    "verified": false,
    "location": {
      "lat": 39.374882,
      "lng": 3.22666
    }
  },
  {
    "name": "Coaliment",
    "address": "Mallorca",
    "area": "Santanyí",
    "category": "supermarkets",
    "rating": 0,
    "verified": false,
    "location": {
      "lat": 39.372068,
      "lng": 3.2267
    }
  },
  {
    "name": "Aliment plus",
    "address": "Mallorca",
    "area": "Santanyí",
    "category": "supermarkets",
    "rating": 0,
    "verified": false,
    "location": {
      "lat": 39.3771,
      "lng": 3.234449
    }
  },
  {
    "name": "Eroski",
    "address": "Cala d'Or",
    "area": "Santanyí",
    "category": "supermarkets",
    "rating": 0,
    "verified": false,
    "location": {
      "lat": 39.36496,
      "lng": 3.225353
    }
  },